ID,NAME,BUILDTIME,longitude,latitude,DISTRICT,PRICE
1111027375142,华龙美晟,2009,116.411858,39.869364,dongcheng,69345
1111027380930,新景家园东区,2002,116.432142,39.902354,dongcheng,100657
1111027381005,兴隆都市馨园,2002,116.420099,39.901616,dongcheng,98788
1111027380567,新奥洋房,2005,116.416543,39.869811,dongcheng,73551
1111027382485,中海紫御公馆,2010,116.399108,39.876842,dongcheng,106210
1111027380931,新景家园西区,2001,116.428467,39.902511,dongcheng,96615
1111027375280,海晟名苑南区,2003,116.447783,39.94387,dongcheng,117909
1111027382283,左安浦园,2001,116.444673,39.880008,dongcheng,75289
1111027380027,天天家园,2002,116.411885,39.87098,dongcheng,66095
1111027380242,万国城MOMA,2002,116.444857,39.954789,dongcheng,102854
1111027374691,国瑞城中区,2004,116.429352,39.904538,dongcheng,93721
1111027374680,广渠家园,2009,116.455654,39.898084,dongcheng,82029
1111027377413,景泰西里西区,2003,116.414356,39.869475,dongcheng,66719
1111027379543,水上华城,2004,116.448783,39.894213,dongcheng,93994
1111027375998,保利蔷薇,2005,116.442531,39.89667,dongcheng,102378
1111027382035,悠胜美苑,2000,116.400105,39.869503,dongcheng,67177
1111027382190,远洋德邑,2002,116.452901,39.901073,dongcheng,81658
1111027374300,富莱茵花园,1990,116.414452,39.866869,dongcheng,59882
1111027374707,官书院,1995,116.416828,39.952781,dongcheng,115263
1111027382286,左安漪园,2004,116.4471,39.879796,dongcheng,83378
1111027374519,冠城名敦道,2009,116.453086,39.898397,dongcheng,72780
1111027381364,新怡家园,2004,116.421081,39.904828,dongcheng,127018
1111027381711,雍和家园一期,2001,116.426255,39.956607,dongcheng,91229
1111027375206,和平里五区,1996,116.426912,39.960779,dongcheng,101996
1111027375430,海运仓小区,2002,116.435055,39.941656,dongcheng,107475
1111027377351,金世纪嘉园,2003,116.4515,39.904606,dongcheng,79817
1111027380488,望陶园小区,1999,116.400737,39.870957,dongcheng,62524
1111043315856,本家润园三期,2004,116.443702,39.900208,dongcheng,87723
1111027374222,富贵园一区,2003,116.440069,39.902423,dongcheng,110983
1111027377312,金桥国际,2004,116.448876,39.901694,dongcheng,77952
1111027377935,绿景苑,1999,116.445042,39.894679,dongcheng,97468
1111027375203,和平里七区,1958,116.427853,39.966824,dongcheng,97160
1111027375215,和平新城一期,2001,116.432835,39.957774,dongcheng,95904
1111027376748,豆瓣胡同,2003,116.437847,39.933684,dongcheng,124790
1111027378889,青年湖东里,1980,116.413053,39.962564,dongcheng,93162
1111027374239,法华南里,1990,116.434144,39.892211,dongcheng,80846
1111027374993,华冠丽景,2003,116.432937,39.951953,dongcheng,114828
1111027381347,西营房,2003,116.409688,39.958188,dongcheng,88920
1111027376551,城市亮点,2002,116.408381,39.874173,dongcheng,75001
1111027377548,建予园,1999,116.402567,39.869745,dongcheng,63209
1111027380911,小黄庄一区,1990,116.416187,39.969551,dongcheng,92442
1111027375202,和平里六区,1993,116.429949,39.963187,dongcheng,101126
1111027375265,海晟名苑北区,2007,116.448623,39.945062,dongcheng,100735
1111027375199,和平里二区,1955,116.429963,39.963815,dongcheng,95507
1111027377077,交道口东大街,2002,116.421263,39.946757,dongcheng,121601
1111043314469,幸福家园三期,2005,116.437705,39.898038,dongcheng,91696
1111027373685,东花市北里中区,1990,116.439746,39.905443,dongcheng,84808
1111027376676,朝阳首府,2009,116.437599,39.930061,dongcheng,96523
1111027381164,巷上嘉园,2005,116.406466,39.957716,dongcheng,100520
1111027375114,胡家园小区,1985,116.450277,39.950513,dongcheng,85926
1111027378417,民旺园,1960,116.433761,39.957978,dongcheng,98036
1111027375572,安德路47号院,1979,116.407868,39.95802,dongcheng,91800
1111027377501,金鱼池西区,2000,116.413838,39.895714,dongcheng,72326
1111027376670,朝阳门南小街,1970,116.433451,39.923705,dongcheng,104087
1111027375204,和平里三区,1996,116.427002,39.962219,dongcheng,106768
1111043314949,本家润园一期,2003,116.443355,39.90268,dongcheng,108238
1111027374220,富贵园三区,2002,116.438785,39.900278,dongcheng,87740
1111027376918,东环居苑,2004,116.45208,39.904622,dongcheng,83603
1111027379462,上龙西里,1988,116.412788,39.958761,dongcheng,93458
1111027381367,新裕家园,2004,116.429768,39.898926,dongcheng,107174
1111027374075,民安小区东直门内北小街,2003,116.432862,39.948968,dongcheng,98316
1111027375933,北京上舍,2008,116.442663,39.897543,dongcheng,89119
1111027376735,定安里,1963,116.418443,39.866651,dongcheng,64289
1111027374953,华府景园,2001,116.412539,39.967344,dongcheng,95017
1111043313755,幸福家园二期,2003,116.438026,39.898854,dongcheng,101510
1111027375108,湖景苑,1999,116.404557,39.961663,dongcheng,101504
1111027374689,国瑞城东区,2005,116.43164,39.904426,dongcheng,92721
1111027373924,地坛北里,1980,116.423426,39.964365,dongcheng,97892
1111027374216,富贵园二区,2003,116.437896,39.901842,dongcheng,84665
1111027377234,聚龙花园,1993,116.447923,39.934558,dongcheng,68231
1111027380239,当代MOMA,2006,116.444483,39.956622,dongcheng,102865
1111027374219,富贵园四区,2006,116.441193,39.900437,dongcheng,105492
1111027374965,禾风相府,2004,116.426966,39.929506,dongcheng,123740
1111027375208,和平里一区,1983,116.426526,39.964952,dongcheng,95066
1111043316306,花市枣苑一期,2001,116.435693,39.902993,dongcheng,95640
1111027375656,安外东河沿,1981,116.417991,39.956806,dongcheng,102572
1111027378887,青年湖北里,1987,116.411359,39.964549,dongcheng,91905
1111027381655,阳光都市,2000,116.447331,39.941506,dongcheng,95893
1111027376862,东方银座,2003,116.441716,39.946158,dongcheng,77373
1111027374690,国瑞城西区,2006,116.425856,39.90406,dongcheng,86023
1111027373684,东花市北里西区,1990,116.435236,39.90518,dongcheng,79431
1111027377932,绿景馨园,2003,116.447756,39.896508,dongcheng,93288
1111027378129,领行国际,2005,116.448361,39.898946,dongcheng,71269
1111027377502,金鱼池中区,1978,116.415431,39.896044,dongcheng,73964
1111027377023,京城仁合,2002,116.44905,39.903129,dongcheng,81854
1111027374072,东直门北大街,1987,116.441482,39.951341,dongcheng,88349
1111027374074,民安小区东直门北中街,1985,116.435512,39.949001,dongcheng,99927
1111027381407,新永外文化用品商城,2005,116.400687,39.872287,dongcheng,65621
1111027381477,新中西街,1990,116.444278,39.938213,dongcheng,83952
1111027375691,安贞苑50号院,1996,116.41545,39.97708,dongcheng,88887
1111027374080,东直门内大街,1940,116.435413,39.946591,dongcheng,104199
1111027381160,西水井胡同,1960,116.437956,39.926419,dongcheng,93599
1111027379888,天娇园,2007,116.445751,39.903761,dongcheng,93183
1111027376532,长青园,1988,116.43349,39.882446,dongcheng,76595
1111027382512,中景濠庭,2001,116.405464,39.957204,dongcheng,93664
1111027380769,西革新里110号院,1990,116.396844,39.872512,dongcheng,66158
1111027377390,景泰东里,1994,116.421118,39.870943,dongcheng,67687
1111043313490,幸福家园一期,2002,116.436759,39.898847,dongcheng,103568
1111027381162,新世界家园,2000,116.423741,39.90101,dongcheng,114722
1111027378078,丽水湾畔家园,2002,116.449403,39.900818,dongcheng,77584
1111027382420,竹杆胡同,2003,116.434144,39.928568,dongcheng,100223
1111027375663,安外花园,1979,116.418248,39.964378,dongcheng,96406
1111027382285,左安溪园,2004,116.444619,39.881579,dongcheng,87996
1111027380693,香饵胡同,1999,116.420933,39.94535,dongcheng,118935
1111027375670,安馨园,2003,116.411111,39.952776,dongcheng,109441
1111027380887,安外西河沿,1983,116.41416,39.957669,dongcheng,91224
1111027380878,兴化西里,1976,116.417203,39.966191,dongcheng,88965
1111043316752,花市枣苑三期,2004,116.435879,39.901966,dongcheng,103719
1111027379801,土儿胡同,1990,116.418938,39.946011,dongcheng,119452
1111027374962,禾风仕家,2000,116.428125,39.929202,dongcheng,112909
1111027374981,化工大院,1988,116.422866,39.96664,dongcheng,101503
1111027378766,培新街乙5号院,1999,116.440067,39.895564,dongcheng,94284
1111027374065,东中街,1982,116.443651,39.943051,dongcheng,93483
1111027380770,西革新里112号院,2001,116.395254,39.872359,dongcheng,60058
1111027377499,金鱼池东区,1976,116.416894,39.894994,dongcheng,70934
1111027374081,东直门南大街,1990,116.441446,39.943621,dongcheng,89961
1111027382107,永铁苑,1999,116.400766,39.875202,dongcheng,66000
1111027378891,青年湖南街,1992,116.402772,39.959887,dongcheng,105806
1111027379053,瑞士公寓,2007,116.44386,39.939176,dongcheng,97837
1111027375180,华普花园,2001,116.438737,39.941809,dongcheng,61106
1111027378894,青年湖西里,1980,116.404734,39.960609,dongcheng,117919
1111043316665,花市枣苑二期,2003,116.436907,39.901554,dongcheng,97482
1111027376836,大方家胡同,1990,116.435132,39.92546,dongcheng,107240
1111027375198,和平里东街9号院,2000,116.43131,39.95951,dongcheng,105315
1111027373909,鼎盛园,2005,116.415784,39.870977,dongcheng,70437
1111027373683,东花市北里东区,1990,116.443438,39.905088,dongcheng,96624
1111027378022,六铺炕,1975,116.400533,39.962226,dongcheng,103404
1111027374021,民安小区东羊管胡同,2002,116.437841,39.948704,dongcheng,98074
1111047229050,京禧阁,2013,116.45209,39.906053,dongcheng,88392
1111027374339,府上嘉园,2007,116.400496,39.961438,dongcheng,124476
1111027375577,安德里北街25号院,1970,116.394978,39.963326,dongcheng,100772
1111027375654,安圣苑,1986,116.414899,39.979866,dongcheng,72648
1111027377016,建国门北大街5号,2008,116.440442,39.919755,dongcheng,56830
1111027374044,民安小区东扬威街,2002,116.438112,39.949359,dongcheng,99524
1111027381776,元嘉国际公寓,2003,116.443318,39.942275,dongcheng,83637
1111027378679,南竹杆胡同,2003,116.435128,39.927784,dongcheng,104984
1111027376004,柏林寺西,1985,116.42911,39.956494,dongcheng,101740
1111027376626,春秀路,1980,116.450229,39.946158,dongcheng,92185
1111027374795,贡院九号,2000,116.436482,39.916493,dongcheng,87879
1111027382523,砖角楼北里,1959,116.43686,39.962178,dongcheng,70456
1111027374267,芳嘉园胡同,2003,116.433722,39.926854,dongcheng,104755
1111027375569,安定路,1993,116.414432,39.977111,dongcheng,93649
1111027381710,雍和家园二期,2005,116.424796,39.956911,dongcheng,78130
1111027378491,南弓匠营胡同,2003,116.434583,39.931714,dongcheng,118694
1111027380314,文津世家,2004,116.420268,39.949318,dongcheng,114516
1111027374078,东直门内北小街8号院,2003,116.432388,39.95399,dongcheng,101532
1111027376599,崇文门东大街,1970,116.433321,39.906309,dongcheng,88830
1111027377435,京香福苑,2001,116.412004,39.950928,dongcheng,104671
1111027382642,忠实里,1970,116.452323,39.900479,dongcheng,79139
1111027376353,察慈小区,1990,116.446448,39.948327,dongcheng,85372
1111027379727,十字坡西里,1981,116.444345,39.945375,dongcheng,101122
1111027379607,三秀涵雅,2000,116.41305,39.963793,dongcheng,84969
1111027378868,前门东大街,1970,116.412489,39.906815,dongcheng,91069
1111027374714,工体3号,2005,116.449846,39.935249,dongcheng,83026
1111027375578,安德路乙61号院,1989,116.400524,39.958938,dongcheng,98971
1111027374668,光明楼,1950,116.4449,39.891482,dongcheng,82790
1111027380897,小黄庄二区,1994,116.417993,39.970747,dongcheng,97796
1111027378565,南门仓胡同,1989,116.434254,39.935275,dongcheng,114226
1111027377225,交林,1980,116.435,39.963418,dongcheng,100737
1111027378877,前门前,2000,116.415211,39.897786,dongcheng,98229
1111027379822,太华公寓,2000,116.423295,39.902249,dongcheng,69311
1111027378459,NAGA上院,2008,116.434166,39.948115,dongcheng,89252
1111027376666,朝阳门北小街,1990,116.432934,39.933528,dongcheng,105648
1111027377406,景泰嘉园,2001,116.419009,39.87095,dongcheng,62129
1111027380768,西革新里108号院,1985,116.398033,39.872301,dongcheng,62221
1111027381841,永康胡同1号院,2002,116.41695,39.953993,dongcheng,115581
1111027378240,民安小区民安街,2002,116.437676,39.950331,dongcheng,107935
1111027379726,十字坡东里,1986,116.445818,39.945717,dongcheng,92165
1111027375590,安化北里,1960,116.441608,39.898639,dongcheng,86260
1111027376667,朝阳门内大街,1988,116.435758,39.930641,dongcheng,86526
1111027374845,郭庄北里,1980,116.418047,39.876106,dongcheng,68899
1111027378107,龙潭西里,1974,116.433777,39.886218,dongcheng,79706
1111027374956,后芳嘉园胡同,2002,116.436201,39.926105,dongcheng,106662
1111027377631,凯景铭座,2001,116.410253,39.968681,dongcheng,78567
1111043352307,长安太和,2012,116.432755,39.916762,dongcheng,122196
1111027377073,交道口北二条35号院,1988,116.417962,39.949228,dongcheng,127014
1111027374073,清水苑,1980,116.441581,39.953001,dongcheng,92827
1111027378418,民旺园十九号院,2000,116.436756,39.957515,dongcheng,89932
1111027377411,景泰西里,1981,116.419045,39.868693,dongcheng,66601
1111027377099,菊儿胡同,1985,116.41148,39.94551,dongcheng,134291
1111027374804,贡院六号,2002,116.438272,39.91638,dongcheng,94575
1111027376504,仓南胡同14号院,1993,116.435822,39.933006,dongcheng,120443
1111027376828,东方财富,2006,116.443376,39.899224,dongcheng,89311
1111027379440,上龙嘉园,1998,116.413516,39.960052,dongcheng,85034
1111027376502,仓南胡同,1979,116.434237,39.933725,dongcheng,125786
1111027375660,安外大街80号院,1987,116.414991,39.965726,dongcheng,91270
1111027374502,管村26号院,1997,116.402042,39.867879,dongcheng,56753
1111027381739,永合馨苑,2001,116.403658,39.869583,dongcheng,62729
1111027374077,东直门内北小街2号院,2003,116.432624,39.955121,dongcheng,80309
1111027375205,和平里四区,1970,116.427986,39.963242,dongcheng,106733
1111027377614,康鸿家园,2000,116.415803,39.966868,dongcheng,93796
1111027380288,外交部街33号院,1988,116.427589,39.919518,dongcheng,129496
1111027374682,广渠门内大街,1960,116.448316,39.900192,dongcheng,87260
1111027378391,美术馆后街,1988,116.414971,39.934043,dongcheng,107526
1111027375827,北官厅胡同,1988,116.432763,39.953152,dongcheng,106742
1111027375657,安外大街,1994,116.414549,39.97239,dongcheng,90970
1111027374076,东直门内北小街16号,2003,116.432396,39.951803,dongcheng,94402
1111027381479,新中西里,1983,116.444518,39.939961,dongcheng,87703
1111027375196,和平里东街10号院,2004,116.432475,39.963904,dongcheng,103297
1111027375573,安德路55号院,1958,116.405598,39.957975,dongcheng,82341
1111027375115,恒基中心,1993,116.43466,39.913621,dongcheng,71688
1111027378881,青年沟,1976,116.422213,39.968073,dongcheng,86132
1111027376503,仓南胡同12号院,1990,116.436666,39.932997,dongcheng,114893
1111027376456,仓夹道,2003,116.437852,39.941438,dongcheng,103075
1111027377074,交道口北三条,1990,116.421577,39.949708,dongcheng,111166
1111027373900,东四十条甲34号院,1988,116.433198,39.939133,dongcheng,97205
1111027375576,安德里北街24号院,1983,116.403478,39.963248,dongcheng,108957
1111027375868,北河沿大街,1985,116.412462,39.927297,dongcheng,108339
1111027376665,朝阳门北大街,1987,116.441929,39.934083,dongcheng,80162
1111027375829,北官厅胡同甲二号院,1993,116.434287,39.952814,dongcheng,105248
1111046292412,东四块玉南街4号院,2001,116.432715,39.88655,dongcheng,100650
1111027377738,李村东里,1970,116.420952,39.874393,dongcheng,74212
1111027376916,东后河沿,1999,116.432151,39.905567,dongcheng,95514
1111027376601,崇文门西大街,1970,116.420117,39.907532,dongcheng,92028
1111027376298,北竹杆胡同,1989,116.435618,39.929172,dongcheng,101774
1111027381843,永康胡同5号院,1982,116.41696,39.953572,dongcheng,131686
1111027373954,东外公馆,2007,116.449678,39.942406,dongcheng,64649
1111027376991,京宝花园,1994,116.413922,39.959865,dongcheng,64502
1111046318849,鼓楼外大街52号,1992,116.402185,39.961265,dongcheng,109199
1111027380890,香河园北里,1984,116.442354,39.957293,dongcheng,89234
1111027379254,胜古中路1号院,1996,116.417021,39.97634,dongcheng,53832
1111027375259,黄寺大街2号院,1990,116.410078,39.96471,dongcheng,91618
1111027374706,甘水桥,1983,116.415112,39.967766,dongcheng,88457
1111027375739,宝钞苑,1999,116.405364,39.954234,dongcheng,100787
1111027382662,中绦胡同甲2号院,1985,116.404199,39.954132,dongcheng,111519
1111027381846,怡龙别墅,1994,116.448859,39.879641,dongcheng,85534
1111027375658,安外大街3号院,1988,116.413584,39.968217,dongcheng,88741
1111027374757,革新南路2号院,1980,116.405554,39.870561,dongcheng,73186
1111027376899,东皇城根南街,1985,116.416136,39.926419,dongcheng,107996
1111027373971,地兴居,1970,116.407787,39.957288,dongcheng,97093
1111027380773,西革新里124号,1981,116.398637,39.870272,dongcheng,71846
1111027381520,雅宝公寓,1999,116.438859,39.920774,dongcheng,86400
1111027377770,李村南里,1980,116.42097,39.872978,dongcheng,74044
1111027380018,天坛东里南区,1970,116.426375,39.880114,dongcheng,77267
1111027382668,赵堂子胡同,1985,116.434565,39.919951,dongcheng,102737
1111027375828,北官厅胡同2号院,1978,116.434147,39.953592,dongcheng,111006
1111027375629,安乐林二条,1987,116.413001,39.868545,dongcheng,64709
1111027378257,帽儿胡同45号院,1984,116.404263,39.944,dongcheng,139581
1111027380696,幸福北里,1950,116.440513,39.893796,dongcheng,84476
1111027376931,东华门大街,1988,116.411331,39.92122,dongcheng,115186
1111027373852,灯市口大街,1986,116.42264,39.924703,dongcheng,104504
1111027375607,安化南里,1980,116.441521,39.895226,dongcheng,87420
1111027375201,和平里九区,1960,116.419091,39.967777,dongcheng,91813
1111027375110,胡家园26号院,1996,116.448812,39.949362,dongcheng,81833
1111027381634,营房西街,1983,116.431111,39.892729,dongcheng,84449
1111027375462,花园胡同8号院,1985,116.409988,39.952769,dongcheng,100534
1111027374087,东直门外小街8号院,1995,116.452098,39.94978,dongcheng,76521
1111027381489,雅安国际公寓,2005,116.439876,39.920841,dongcheng,91462
1111027378416,民委三舍,2001,116.433593,39.965031,dongcheng,96496
1111027374050,大羊宜宾胡同31号院,1990,116.435931,39.919,dongcheng,99590
1111027376669,朝阳门内大街75号院,1990,116.436403,39.931929,dongcheng,96489
1111027375214,和平新城二期,2005,116.432615,39.958863,dongcheng,90411
1111027375632,安乐林头条2号院,1989,116.413294,39.870154,dongcheng,62279
1111027376195,北新仓胡同,2002,116.434007,39.946351,dongcheng,106268
1111027376712,车站路6号院,1980,116.388652,39.876481,dongcheng,65034
1111027380019,天坛东里中区,1970,116.427206,39.883008,dongcheng,81377
1111027378893,青年湖南里,1990,116.41351,39.960267,dongcheng,90244
1111027381425,小羊宜宾胡同,1988,116.437281,39.918733,dongcheng,99374
117284081570681,使馆壹号院,2012,116.443126,39.950961,dongcheng,144473
1111027378272,美惠大厦,1998,116.444157,39.935985,dongcheng,59608
1111027381167,新世界中心,1995,116.423696,39.904185,dongcheng,59579
1111027374052,大羊宜宾胡同35号院,1988,116.434391,39.919211,dongcheng,95459
1111027375197,和平里东街15号院,1985,116.431393,39.957079,dongcheng,96565
1111027373848,东水井胡同,2003,116.43827,39.928362,dongcheng,81372
1111027375277,华世隆国际公寓,2000,116.415189,39.975856,dongcheng,44435
1111027373858,东四块玉北街,1990,116.430723,39.888924,dongcheng,77769
1111027376889,东革新里40号院,1979,116.403511,39.872127,dongcheng,65865
1111027379915,天利园,2003,116.443031,39.898481,dongcheng,85382
1111027380717,幸福南里,1953,116.438842,39.89084,dongcheng,85752
1111027378578,南水关,1975,116.447436,39.897461,dongcheng,89068
1111027381840,永康胡同18号院,1984,116.41545,39.952859,dongcheng,112224
1111027375431,海运仓胡同3号院,1986,116.43345,39.944246,dongcheng,93969
1111027373925,地坛北门,1975,116.419222,39.963639,dongcheng,111291
1111027376493,车辇店胡同,1999,116.410619,39.95174,dongcheng,109918
1111027374716,工体北里,1983,116.449539,39.940343,dongcheng,94072
1111027376794,东城逸墅,2009,116.445871,39.944872,dongcheng,103131
1111027374055,东总布胡同,1990,116.437465,39.918288,dongcheng,96760
1111027380285,外交部街,1990,116.43191,39.919202,dongcheng,95538
1111027378094,龙潭北里三条,1965,116.445061,39.889509,dongcheng,70196
1111027379349,烧酒胡同3号院,1998,116.435937,39.931833,dongcheng,133507
1111027375848,宝华家园,2000,116.411166,39.86781,dongcheng,63037
1111027374755,革新里小区,1987,116.403869,39.873255,dongcheng,63355
1111027380112,桃杨路北里12号院,1999,116.414006,39.876414,dongcheng,65446
1111027375475,后永康胡同2号院4号院,1990,116.429919,39.950424,dongcheng,97957
1111027378498,南岗子,1978,116.434706,39.893998,dongcheng,82854
1111027376769,东厂胡同,1985,116.415707,39.928228,dongcheng,108383
1111027377141,建国门内大街,1992,116.437471,39.914258,dongcheng,105376
1111027377922,朗家胡同13号院,1990,116.408184,39.953334,dongcheng,104578
1111027375220,火桥北里,1970,116.439939,39.887883,dongcheng,77169
1111027375579,安定门东大街,1985,116.425446,39.954872,dongcheng,108564
1111027376212,北新桥三条1号院,1981,116.431068,39.950267,dongcheng,126563
1111027377999,禄米仓胡同,1969,116.435845,39.922998,dongcheng,116921
1111027374787,甘雨胡同33号院,1989,116.421858,39.923372,dongcheng,109534
1111027378818,骑河楼大街,1980,116.412213,39.926288,dongcheng,113611
1111027375433,海运仓南里一区,1998,116.436716,39.941556,dongcheng,95385
1111027376066,柏树胡同,1950,116.421827,39.924044,dongcheng,107039
1111027378852,青龙胡同,1975,116.429682,39.95412,dongcheng,113556
1111027381250,西堂子胡同,1940,116.423111,39.922669,dongcheng,115734
1111027381096,西青年沟,1982,116.418876,39.968393,dongcheng,93015
1111027380323,王家园胡同,2000,116.445095,39.936071,dongcheng,81636
1111027379352,什锦花园胡同21号院,1985,116.421058,39.93627,dongcheng,126685
1111027377723,李村,1980,116.419242,39.875809,dongcheng,71871
1111027381443,西总布胡同55号院,1990,116.426157,39.918525,dongcheng,109183
1111027376498,朝内大街201号院,1999,116.429786,39.932065,dongcheng,138043
1111027375729,板厂南里,1970,116.448477,39.890787,dongcheng,90899
1111027379716,沙子口路50号,1998,116.41197,39.867985,dongcheng,58512
1111027373855,灯市口西街,1950,116.414359,39.924443,dongcheng,106644
1111027376048,宝润苑,1998,116.434927,39.904769,dongcheng,64924
1111027377970,琉璃井东街,1980,116.416417,39.876167,dongcheng,68286
1111027380111,桃杨路北里,1980,116.414299,39.87582,dongcheng,69454
1111027374671,光明西里,1970,116.442022,39.893339,dongcheng,92001
1111027375737,板厂新里,1976,116.450191,39.892069,dongcheng,83617
1111027378886,青年湖北街,1997,116.412397,39.966393,dongcheng,106402
1111027373733,东交民巷32号院,1979,116.412801,39.908172,dongcheng,98594
1111027378739,炮局头条,1970,116.428874,39.953319,dongcheng,91725
1111027381835,杨家园西里,1980,116.41524,39.876518,dongcheng,70267
1111027377139,建国门北大街,1988,116.440746,39.920826,dongcheng,94101
1111027381582,永定门东街东里,1970,116.418605,39.879823,dongcheng,75035
1111027373943,东堂子胡同,1955,116.432287,39.920429,dongcheng,91146
1111027380021,天坛公馆,2003,116.436539,39.891265,dongcheng,130342
1111027374989,花梗胡同1号院,1985,116.419288,39.94506,dongcheng,126165
1111027377802,林调社区,1970,116.432585,39.963209,dongcheng,117271
1111027374753,革新里24号院,1994,116.403101,39.873622,dongcheng,59170
1111027376499,朝内大街203号院,1960,116.428856,39.931468,dongcheng,114958
1111027375464,鸿运花园,1996,116.43065,39.882137,dongcheng,79468
1111027374051,大羊宜宾胡同33号院,1992,116.435195,39.919148,dongcheng,97003
1111027374862,鸿安国际大厦,2002,116.430928,39.929859,dongcheng,63310
1111027374745,国祥胡同4号院,1988,116.404412,39.952825,dongcheng,121627
1111027379704,苏州胡同,1960,116.426814,39.911701,dongcheng,88398
1111027382017,玉石胡同,1990,116.41914,39.928339,dongcheng,105037
1111027382017,玉石胡同,1990,116.41914,39.928339,dongcheng,105037
1111043315814,本家润园二期,2007,116.443781,39.90333,dongcheng,55040
1111027380114,桃园南街10号院,1980,116.407316,39.876396,dongcheng,70910
1111048233361,霞公府,2010,116.414502,39.916177,dongcheng,113577
1111027381473,夕照寺西里,1956,116.446244,39.897173,dongcheng,87871
1111027380893,香河园街,1990,116.441801,39.949304,dongcheng,78706
1111027378704,普渡寺后巷,2003,116.411136,39.920246,dongcheng,147651
1111027380639,西草市东街甲34号院,1970,116.407187,39.896458,dongcheng,76682
1111027379720,沙子口路72号,1987,116.412797,39.867179,dongcheng,64592
1111027376882,东公街64号院,1985,116.413443,39.947734,dongcheng,107466
1111027373899,东四十条甲100号院,1990,116.425954,39.939475,dongcheng,97914
1111027374784,甘雨胡同,1940,116.420801,39.923004,dongcheng,105288
1111027375477,后永康胡同6号院,1980,116.429102,39.950473,dongcheng,81188
1111027374715,工体北路,1988,116.447329,39.939095,dongcheng,88557
1111041864329,东黄城根北街40号院,1990,116.413556,39.931842,dongcheng,107235
1111027380094,体育馆路13号,1950,116.429036,39.890388,dongcheng,80435
1111027374062,东中公寓,1997,116.443328,39.941216,dongcheng,82385
1111027381014,锡拉胡同21号院,1988,116.413948,39.923068,dongcheng,100617
1111027376495,朝内大街136号院,1999,116.43385,39.929994,dongcheng,118217
1111027378737,潘家坡胡同4号院,1988,116.444502,39.935082,dongcheng,91968
1111027382254,阳照胡同,1990,116.435212,39.919736,dongcheng,78470
1111027380038,天坛西里东区,1970,116.409289,39.88201,dongcheng,74190
1111027378091,龙潭北里二条,1960,116.443245,39.889417,dongcheng,83558
1111027377140,建国门南大街,1986,116.441654,39.912197,dongcheng,94931
1111027380096,体育馆西路2号院,1990,116.429908,39.893326,dongcheng,80762
1111027381583,永定门东街西里,1970,116.410089,39.879705,dongcheng,76390
1111027378001,禄米仓胡同71号院,1977,116.436546,39.923255,dongcheng,129191
1111100554096,百荣嘉园,2015,116.399008,39.873692,dongcheng,49807
1111027381442,西总布胡同,1988,116.428604,39.917905,dongcheng,102834
1111027379807,同福夹道,1990,116.423144,39.925172,dongcheng,104213
1111027380839,兴化路11号院,1983,116.42013,39.969341,dongcheng,89047
1111027381312,新鲜胡同,1990,116.433837,39.927496,dongcheng,119536
1111027373861,东四块玉南街30号院,1980,116.432283,39.883772,dongcheng,77812
1111027379571,沙滩后街55号院,1986,116.407081,39.931993,dongcheng,112179
1111027373689,东花市大街2号院,1980,116.445552,39.903067,dongcheng,87928
1111027375460,花园胡同,1982,116.410423,39.953681,dongcheng,101840
1111027378448,煤渣胡同,1981,116.422622,39.920593,dongcheng,105174
1111027376900,东皇城根南街86号院,1959,116.413981,39.923345,dongcheng,105738
1111027376306,宝珠子胡同,1988,116.436297,39.920238,dongcheng,81844
1111027381584,永定门东街中里,1970,116.41449,39.879802,dongcheng,77205
1111027382345,正东国际大厦,2004,116.452836,39.950077,dongcheng,50558
1111027373896,东四四条,1989,116.427016,39.933543,dongcheng,99293
1113403167404252,东四块玉南街,1980,116.43097,39.885035,dongcheng,74107
1111040863005,沙滩南巷,1985,116.411368,39.929449,dongcheng,97788
1111027376284,北总布胡同,1988,116.43834,39.920354,dongcheng,88586
1111027379860,台基厂头条14号院,1980,116.41937,39.91201,dongcheng,107339
1111027381087,小取灯胡同8号院,1992,116.414151,39.93478,dongcheng,119370
1111027381313,西香河园,1979,116.441564,39.950319,dongcheng,86290
1111818599198994,东四北大街,1980,116.423319,39.936221,dongcheng,99150
1111027373759,东罗圈胡同,1960,116.430798,39.923454,dongcheng,119062
1111027375633,安乐林中街,1980,116.41483,39.868007,dongcheng,66440
1111027378092,龙潭北里六条,1960,116.445225,39.888123,dongcheng,82395
1111027376039,白桥大街,1980,116.446847,39.904164,dongcheng,79312
1111027374086,东直门外小街10号院,1986,116.451461,39.949365,dongcheng,78733
1111027378702,普渡寺东巷,2002,116.411657,39.920502,dongcheng,139108
1111027378095,龙潭北里四条,1960,116.446551,39.889406,dongcheng,87980
1111027376214,北新桥头条,1970,116.427102,39.947954,dongcheng,99910
1111027375262,花市东三条,1980,116.444622,39.904783,dongcheng,95800
1111027376761,东厂北巷,1985,116.415004,39.928961,dongcheng,107627
1111041181628,中轴国际,2005,116.407031,39.95637,dongcheng,105607
1111027378389,美术馆东街,1985,116.416976,39.932693,dongcheng,143574
1111027374828,贡院西街,1990,116.437148,39.916982,dongcheng,120099
1111027379719,沙子口路70号,1989,116.412529,39.867735,dongcheng,65668
1111027373853,灯市口大街27号院,1986,116.422622,39.925205,dongcheng,116210
1111042948189,北新桥三条,1985,116.431937,39.949315,dongcheng,95433
1111027373786,东棉花胡同2号院,1985,116.414582,39.941691,dongcheng,128033
1111027376764,大草厂胡同,1985,116.414033,39.926412,dongcheng,109618
1111027380009,天坛北里,1980,116.419258,39.895239,dongcheng,81138
1111027380028,天坛路,1991,116.407355,39.893576,dongcheng,73778
1111027376046,白桥苑,2000,116.445562,39.904849,dongcheng,87446
1111027379788,铜厂子胡同,1979,116.444451,39.943033,dongcheng,93979
1111027381328,向新西里,1970,116.443211,39.878865,dongcheng,82690
1111027379348,史家胡同20号院,1960,116.429741,39.924333,dongcheng,135108
1111027377971,琉璃井路,1967,116.413262,39.872716,dongcheng,68671
1111027375209,和平里中街,1976,116.423682,39.963048,dongcheng,105527
1111027374016,东营房八条,1980,116.446478,39.936531,dongcheng,83258
1111027374056,东总布胡同19号院,1992,116.438583,39.918353,dongcheng,101650
1111027380023,桃条胡同,1999,116.416937,39.942368,dongcheng,159593
1111027381474,夕照寺中街,1991,116.444744,39.895252,dongcheng,84379
1111027381011,锡拉胡同10号院,1985,116.4158,39.922472,dongcheng,102450
1111027378096,龙潭北里五条,1963,116.446686,39.888001,dongcheng,80304
1111027375574,安德路59号,1988,116.404305,39.958064,dongcheng,93911
1111027378000,禄米仓胡同67号院,1990,116.436756,39.923517,dongcheng,124483
1111027376521,磁器库南巷,2000,116.412201,39.919086,dongcheng,147674
1111027379717,沙子口路61号,1987,116.412176,39.866892,dongcheng,60555
1111027373828,东四二条,1978,116.426225,39.932046,dongcheng,117855
1111027374786,甘雨胡同2号院,1999,116.422525,39.923523,dongcheng,135797
1111027376500,朝阳门内大街甲190号院,1985,116.429983,39.929698,dongcheng,97160
1111027376652,草园胡同,1980,116.429427,39.948563,dongcheng,96494
1111027379861,台基厂头条2号院,1970,116.421433,39.911996,dongcheng,114021
1111027379343,史家胡同,1970,116.429307,39.924519,dongcheng,131320
1111027378892,青年湖南街6号院,1995,116.404725,39.959932,dongcheng,106317
1111027382567,中剪子巷,1982,116.418696,39.940928,dongcheng,127220
1111027373856,灯市口西街5号院,1986,116.41576,39.925114,dongcheng,111416
1111027377923,朗家胡同24号院,1974,116.407254,39.95298,dongcheng,109455
1111063601416,盛德大厦,2014,116.415435,39.964901,dongcheng,103778
1111046315925,桃杨路教师楼,1999,116.414761,39.875242,dongcheng,73195
1111027378093,龙潭北里七条,1965,116.4443,39.887832,dongcheng,83923
1111027375725,宝钞胡同,1981,116.405675,39.953266,dongcheng,104888
1111027380767,西革新里104号,1996,116.398349,39.873086,dongcheng,58602
1111027374724,工体西路,1992,116.449756,39.934586,dongcheng,92700
1111027374294,福禄巷,1986,116.410669,39.925596,dongcheng,104007
1111042967521,东四西大街50号院,1988,116.41875,39.930281,dongcheng,104113
1111027373897,东四十条,1970,116.427375,39.939995,dongcheng,110219
1111027375888,北京汇,2007,116.41952,39.903296,dongcheng,47009
1111027376459,藏经馆胡同15号院,1985,116.424513,39.954148,dongcheng,114558
1111027381013,锡拉胡同15号院,1988,116.414942,39.922801,dongcheng,94122
1111027379859,台基厂头条10号院,1980,116.422298,39.912155,dongcheng,112885
1111027376897,东湖别墅,2010,116.44896,39.948589,dongcheng,
1111027379718,沙子口路65号,1985,116.412685,39.866379,dongcheng,69227
1111027373905,东四西大街,1988,116.422088,39.930298,dongcheng,102516
1111027373785,东棉花胡同,1985,116.411586,39.941964,dongcheng,116601
1111027381585,永定门外大街,1970,116.406799,39.876431,dongcheng,79179
1111027379569,沙滩北街乙2号院,1989,116.410299,39.933449,dongcheng,105182
1111027376763,东厂北巷3号院,1986,116.414503,39.928937,dongcheng,121035
1111027373757,灯笼库胡同,2003,116.409952,39.918766,dongcheng,144345
1111027378097,龙潭北里一条,1960,116.442724,39.889517,dongcheng,73932
1111027376571,抽屉胡同,1960,116.437108,39.909841,dongcheng,91618
1111027373783,东门仓胡同甲3号院,1988,116.438069,39.937117,dongcheng,123005
1111027377075,交道口北头条,1960,116.421577,39.949708,dongcheng,
1111027373901,东四十一条,1958,116.429248,39.940483,dongcheng,92355
1111027378870,前门东小街,1980,116.415806,39.906055,dongcheng,94041
1111046567146,智德北巷,1985,116.412751,39.924983,dongcheng,118829
1111027374258,方家胡同,1960,116.416962,39.950522,dongcheng,
1111027374501,管村10号,1980,116.40361,39.870178,dongcheng,63428
1111027378438,民主北街22号院,1970,116.408496,39.87321,dongcheng,70725
1111027378090,龙潭北里八条,1960,116.443568,39.888098,dongcheng,85222
1111027382048,育树四条,1983,116.429917,39.954479,dongcheng,88456
1111027380916,小经厂胡同,1982,116.411069,39.949578,dongcheng,102288
1111027374330,富瑞苑,1997,116.447329,39.894509,dongcheng,63273
1111046923177,体育馆路甲8号,1970,116.42902,39.889748,dongcheng,77123
1111027374673,光明中街,1991,116.446477,39.893996,dongcheng,81633
1111027376994,金宝街,2004,116.44086,39.921923,dongcheng,120947
1111027374625,鼓楼东大街,1988,116.410665,39.947165,dongcheng,169340
1111027378063,礼士胡同甲66号院,1980,116.424346,39.927871,dongcheng,101577
1111027378956,前永康二巷,1970,116.426265,39.949747,dongcheng,111727
1111027374085,东直门外斜街,1988,116.446972,39.950006,dongcheng,80099
1111027379351,什锦花园胡同,1980,116.42174,39.936235,dongcheng,131307
1111027375555,安乐林路17号旁门,1986,116.422918,39.872511,dongcheng,69861
1111027374980,后拐棒胡同甲2号院,1985,116.431838,39.928933,dongcheng,102614
1111027381863,演乐胡同,1970,116.431098,39.927369,dongcheng,108815
1111027374825,贡院头条,1985,116.438142,39.917432,dongcheng,97424
1111027375782,报房胡同,1940,116.420698,39.928384,dongcheng,119324
1111046279536,北新桥三条64号院,1985,116.424206,39.94918,dongcheng,104010
1111027377078,交道口南大街,1985,116.414748,39.941562,dongcheng,135722
1111027377400,净土胡同5号院,1965,116.4084,39.952188,dongcheng,84264
1111043241688,东交民巷13号院,1990,116.419454,39.909218,dongcheng,109328
1111027381174,西四块玉,1960,116.428392,39.886229,dongcheng,75308
1111027380545,汪芝麻胡同,1988,116.422036,39.938394,dongcheng,109486
1111027377835,灵光胡同,1980,116.411958,39.954119,dongcheng,97219
1111027377988,琉璃寺胡同,1981,116.408865,39.951238,dongcheng,90785
1111027376042,板桥胡同,1986,116.425349,39.944012,dongcheng,103300
1111027380289,外交部街59号院,1990,116.425465,39.919449,dongcheng,131824
1111027379570,沙滩后街,1985,116.407434,39.93199,dongcheng,111107
1111027373859,东四块玉南街甲9号楼,1980,116.431136,39.885498,dongcheng,74367
1111027376753,东板桥东巷,1985,116.407855,39.936363,dongcheng,87941
1111027373890,东四十二条21号院,1988,116.429188,39.941318,dongcheng,103159
1111027380016,天坛东路64号,1980,116.428422,39.886184,dongcheng,81552
1111027375580,安定门内大街,1975,116.415238,39.94897,dongcheng,122950
1111027380030,天坛南里西区,1981,116.409433,39.880653,dongcheng,72864
1111027382282,左安门内大街,1981,116.44576,39.881032,dongcheng,80880
1111027373894,东四十四条,1988,116.426899,39.943332,dongcheng,
1111046835333,体育馆路甲6号,1970,116.430711,39.889821,dongcheng,83183
1111027374744,国祥胡同,1958,116.403529,39.953339,dongcheng,99405
1111027374345,分司厅胡同11号院,1985,116.413714,39.950545,dongcheng,108364
1111027380013,天坛东里,1980,116.421231,39.889118,dongcheng,97637
1111027373862,东四六条,1982,116.427707,39.936365,dongcheng,102128
1111027380772,西革新里122号,1983,116.398821,39.870611,dongcheng,66424
1111027381695,雍和大厦,2003,116.427515,39.954754,dongcheng,44910
1111027373760,东罗圈胡同北,1958,116.431006,39.923921,dongcheng,95667
1111027382643,忠实里四巷,1983,116.451188,39.903187,dongcheng,84760
1111027379649,三元街11号,1979,116.403986,39.876869,dongcheng,64200
1111043549623,银闸胡同20号院,1995,116.410858,39.928417,dongcheng,
1111027376854,多福巷,2007,116.419259,39.929487,dongcheng,149810
1111027376197,宝轩大厦,1998,116.438459,39.906335,dongcheng,85751
1111027379347,韶九胡同15号院,2001,116.415048,39.923764,dongcheng,
1111027381015,锡拉胡同23号院,1990,116.41735,39.92279,dongcheng,
1111027381222,新太仓胡同,1980,116.4273,39.946146,dongcheng,118036
1111040862966,公益巷,1960,116.417871,39.951476,dongcheng,
1111042883408,青年湖北街18号院,1990,116.405649,39.963426,dongcheng,
1111027376823,东单三条,1988,116.422253,39.916631,dongcheng,
1111027375711,八宝坑胡同,1988,116.426596,39.944239,dongcheng,
1111027378998,荣丰2008,2000,116.343245,39.900529,xicheng,118623
1111027381801,远见名苑,2004,116.344985,39.891739,xicheng,89462
1111027378040,朗琴园,2002,116.348282,39.892777,xicheng,100689
1111027381668,阳光丽景,2002,116.392695,39.969608,xicheng,141113
1111027382272,裕中西里,1979,116.39145,39.978742,xicheng,129134
1111027380656,红山世家,2010,116.340073,39.899642,xicheng,88640
1111027382251,裕中东里,1980,116.399018,39.978141,xicheng,131289
1111027380894,西豪逸景,2001,116.348379,39.898284,xicheng,83010
1111027378981,清芷园,2000,116.378537,39.879671,xicheng,101117
1111027378073,丽水莲花,2006,116.3367,39.897727,xicheng,91152
1111027377722,乐城,2004,116.346469,39.882483,xicheng,82426
1111027376034,北欧印象,2002,116.336945,39.882166,xicheng,86632
1111027376524,常青藤嘉园,2004,116.340034,39.885855,xicheng,86216
1111027374529,格调,2004,116.333306,39.891491,xicheng,88751
1111027376481,畅柳园,2002,116.3896,39.887388,xicheng,98769
1111027374250,丰汇园小区,1993,116.373085,39.921965,xicheng,182903
1111027382612,朱雀门,2004,116.395214,39.88381,xicheng,141289
1111027374768,官苑8号,2006,116.367845,39.935365,xicheng,155342
1111027380621,西城晶华,2008,116.372543,39.927054,xicheng,146333
1111027382705,中信锦园,2009,116.383392,39.890378,xicheng,136585
1111027374840,冠英园小区,1997,116.372422,39.944412,xicheng,110115
1111027382714,中信沁园,2011,116.384071,39.892118,xicheng,138740
1111027376564,椿树园,1998,116.385168,39.900454,xicheng,108606
1111027376404,车公庄北里,1960,116.353434,39.940291,xicheng,98192
1111046551537,玺源台,2013,116.33687,39.900259,xicheng,101624
1111027382627,庄胜二期,2004,116.386492,39.903916,xicheng,136350
1111027377146,锦官苑,2004,116.357981,39.938489,xicheng,122556
1111027375640,爱民里小区,1988,116.387408,39.935904,xicheng,137793
1111027375583,安德馨居,2002,116.390549,39.957292,xicheng,123495
1111027378771,平原里小区,1995,116.37913,39.887761,xicheng,93159
1111027374838,国英园,1994,116.365415,39.939525,xicheng,117122
1111027378248,马甸南村,1985,116.384103,39.972885,xicheng,134822
1111027380716,新风南里,1977,116.38343,39.967454,xicheng,137291
1111027382720,中信禧园,2013,116.385495,39.89263,xicheng,146593
1111027380942,新街口西里三区,2003,116.372605,39.949564,xicheng,104025
1111027375257,黄寺大街24号院,1981,116.392796,39.96812,xicheng,127355
1111027380725,熙府桃园,2004,116.368822,39.950539,xicheng,123877
1111027379983,陶然北岸,2004,116.389739,39.890281,xicheng,113289
1111027381931,一瓶,2006,116.390911,39.884464,xicheng,113920
1111027379289,四合上院,2010,116.384821,39.897652,xicheng,139102
1111027382473,中海凯旋,2003,116.3707,39.918845,xicheng,173255
1111027377018,教场口9号院,2003,116.387118,39.960732,xicheng,110147
1111027378335,马连道中里,1990,116.336918,39.893507,xicheng,90912
1111027379430,三里河一区3号院,1999,116.348983,39.922071,xicheng,139374
1111027379516,四平园,1990,116.386269,39.888411,xicheng,104308
1111027376012,北露园,1992,116.34798,39.93174,xicheng,103965
1111027375999,北礼士路,1977,116.360016,39.939659,xicheng,104419
1111027382586,展览路,1950,116.351337,39.931197,xicheng,103645
1111027379803,铁二区,1982,116.354135,39.916877,xicheng,118680
1111027373850,德胜佳苑,2008,116.382621,39.957951,xicheng,131005
1111027380068,恬心家园,2000,116.363739,39.884305,xicheng,82971
1111027378564,南露园,1992,116.348521,39.930655,xicheng,101384
1111027381293,宣武门西大街,1970,116.371787,39.905909,xicheng,109568
1111027377179,九和苑,2002,116.358465,39.940861,xicheng,115843
1111027378023,六铺炕二区,1950,116.395202,39.961718,xicheng,133272
1111027375155,红莲中里,1980,116.340473,39.886963,xicheng,82736
1111027377642,考拉社区,2005,116.353097,39.882435,xicheng,84333
1111027379523,双旗杆东里,1974,116.394288,39.972468,xicheng,127002
1111027381883,依莲轩,2000,116.334485,39.890374,xicheng,82671
1111027378025,六铺炕一区,1975,116.399275,39.958385,xicheng,138497
1111027381458,西直门南大街,1980,116.362866,39.940789,xicheng,107353
1111027380943,新街口西里一区,2003,116.376346,39.951025,xicheng,102896
1111027380827,信和嘉园,2006,116.332299,39.885776,xicheng,103214
1111027381059,新明胡同,1980,116.384092,39.96456,xicheng,135220
1111027374577,观河锦苑,2002,116.378402,39.958387,xicheng,140187
1111027378533,牛街西里,1999,116.368316,39.892214,xicheng,81122
1111027378528,牛街东里,1999,116.373903,39.89381,xicheng,81094
1111027380262,万和世家,2002,116.371638,39.885409,xicheng,112574
1111027381270,新外大街甲8号院,1973,116.378553,39.968971,xicheng,137499
1111027377111,建功北里,1981,116.359171,39.886349,xicheng,80556
1111027374901,恒昌花园,1994,116.343785,39.893621,xicheng,79743
1111027375143,华龙美钰,2011,116.373773,39.87765,xicheng,102371
1111027382109,玉桃园三区,1990,116.369634,39.949548,xicheng,109133
1111027378997,人定湖西里,1955,116.389326,39.963727,xicheng,119422
1111027374483,广安门外南街,1980,116.352899,39.889225,xicheng,88893
1111027375147,红莲南里,1980,116.340674,39.884851,xicheng,82626
1111027375053,宏汇园小区,1999,116.377294,39.920914,xicheng,180733
1111027379974,天桥北里,2002,116.403304,39.891691,xicheng,79239
1111027377704,扣钟北里,1986,116.348041,39.932646,xicheng,110298
1111027382067,月坛北街25号院,1960,116.34363,39.926024,xicheng,122751
1111027377350,京师吉地,2011,116.385363,39.971122,xicheng,151440
1111027382663,政泰家园,2004,116.352069,39.879651,xicheng,65884
1111027380853,小红庙,1980,116.344635,39.887735,xicheng,89679
1111027375955,北京尊府,2008,116.368189,39.90843,xicheng,187315
1111027380940,新街口西里二区,2002,116.374101,39.951363,xicheng,98892
1111027382108,玉桃园二区,1990,116.367291,39.948688,xicheng,109193
1111027378779,侨办大院,1956,116.345153,39.931617,xicheng,112509
1111027374591,广华轩,1998,116.346513,39.896377,xicheng,77791
1111027374406,复兴门外大街,1979,116.34688,39.912912,xicheng,123550
1111027382129,源屋曲,2005,116.354329,39.886078,xicheng,101442
1111027378024,六铺炕三区,1952,116.393064,39.960653,xicheng,124263
1111027377875,立恒名苑,2002,116.354608,39.889087,xicheng,60793
1111027378984,融城,2005,116.357943,39.934171,xicheng,107205
1111027377345,锦上国际公寓,2007,116.358128,39.899017,xicheng,75254
1111027376771,蝶翠华庭,2003,116.338354,39.901149,xicheng,92249
1111027373865,德胜里一区,1980,116.383332,39.962892,xicheng,146053
1111027375149,红莲晴园,2000,116.338389,39.889219,xicheng,75700
1111027380157,万博苑,1997,116.371885,39.876972,xicheng,89399
1111027376697,车站东街15号院,1979,116.351933,39.887523,xicheng,93868
1111027379417,三里河二区A区,1999,116.3498,39.918468,xicheng,136678
1111027379424,三里河三区,1950,116.348013,39.916205,xicheng,129444
1111027380370,文联宿舍,1992,116.393805,39.973724,xicheng,131398
1111027381260,新外大街28号院,1980,116.38037,39.958917,xicheng,138315
1111027375126,红莲北里,1980,116.340633,39.891697,xicheng,94460
1111027377196,京畿道,1990,116.374445,39.915338,xicheng,151880
1111027376719,车站西街15号院,1987,116.345084,39.884248,xicheng,86470
1111027381023,馨莲茗园,2003,116.333824,39.889469,xicheng,79191
1111027379070,如意里,1958,116.370813,39.949254,xicheng,101452
1111027381104,西绒线,1957,116.386156,39.91037,xicheng,114979
1111027380828,西环景苑,2001,116.337032,39.88979,xicheng,74809
1111027374315,丰侨公寓,2006,116.372766,39.923318,xicheng,184091
1111027377017,教场口6号院,2003,116.387037,39.95917,xicheng,130798
1111027375528,华裕园小区,2000,116.387197,39.932429,xicheng,143695
1111027376754,德宝新园,1990,116.353371,39.945198,xicheng,100672
1111027377327,金融世家,2008,116.353318,39.910173,xicheng,121691
1111027380384,万明园,1990,116.361203,39.927106,xicheng,110931
1111027377641,康乐里小区,1999,116.373105,39.901209,xicheng,109302
1111027374212,富国里小区,1996,116.372374,39.935293,xicheng,122129
1111027380697,新风北里,1983,116.381307,39.970874,xicheng,140388
1111027381284,新文化街,1979,116.375371,39.909516,xicheng,169291
1111027379986,陶然湖景,2002,116.384381,39.882589,xicheng,123876
1111027379923,天宁寺东里,1970,116.354039,39.900277,xicheng,86465
1111027380601,西便门西里,1979,116.35881,39.905008,xicheng,93438
1111027375807,北广家园,2005,116.390177,39.967981,xicheng,128820
1111027378436,茗筑,2005,116.328581,39.881777,xicheng,72354
1111027379265,盛晖嘉园,2008,116.388606,39.965854,xicheng,125739
1111027374331,丰融园,2003,116.373975,39.92321,xicheng,192726
1111027382013,榆树馆西里,1982,116.352655,39.942523,xicheng,111294
1111027376181,百万庄大街甲21号院,1982,116.354791,39.934969,xicheng,126288
1111027380170,五栋大楼,2003,116.353189,39.938692,xicheng,98121
1111027382064,月坛北街,1965,116.354581,39.92393,xicheng,122920
1111027379416,三里河二区,1952,116.350151,39.915176,xicheng,119588
1111047090108,新壁街,1957,116.388124,39.907788,xicheng,113098
1111027379431,三里河一区5号院,2002,116.350483,39.921417,xicheng,132417
1111027379269,双槐里,1990,116.377179,39.88737,xicheng,100338
1111027374297,富力信然庭,2006,116.396473,39.885907,xicheng,141369
1111027380688,信德园,2002,116.352397,39.882326,xicheng,68047
1111027380660,新德街35号院,1980,116.380981,39.963101,xicheng,128898
1111027380593,西便门东里,1970,116.360004,39.90498,xicheng,97350
1111027379301,似海怡家,2002,116.369657,39.894183,xicheng,83128
1111027378190,凌云居,2000,116.374284,39.89445,xicheng,77699
1111027377143,建功南里,1990,116.359316,39.882762,xicheng,83746
1111027376241,北营房东里,1977,116.35861,39.932098,xicheng,107878
1111027379418,三里河二区B区,1993,116.348724,39.916503,xicheng,137062
1111027380599,西便门外大街,1954,116.357739,39.908038,xicheng,120852
1111027379538,车站西街1号院,2006,116.347957,39.888886,xicheng,74372
1111027381854,玉廊东园,2007,116.368804,39.935178,xicheng,155393
1111027374481,广安门外大街,1975,116.347249,39.896176,xicheng,93574
1111027379966,太仆寺33号院,2000,116.385039,39.919669,xicheng,137779
1111027379944,太平里,1997,116.329679,39.887968,xicheng,76711
1111027379510,手帕口北街,1974,116.348433,39.897049,xicheng,83071
1111027379428,三里河一区,1955,116.347957,39.921131,xicheng,128763
1111027379926,天宁寺前街南里,1990,116.351201,39.897751,xicheng,86067
1111027378200,丽阳四季,2001,116.335627,39.889618,xicheng,85201
1111027379632,三义东里,1982,116.337732,39.894222,xicheng,86539
1111027381506,右安门内西街甲2号院,1980,116.368551,39.877286,xicheng,97908
1111027380706,新风街1号院,2000,116.384254,39.96848,xicheng,148984
1111027376242,北营房西里,1956,116.354733,39.931695,xicheng,111118
1111027381083,西派国际公寓,2009,116.365222,39.935656,xicheng,98348
1111027374783,官园公寓,1997,116.369954,39.936754,xicheng,114041
1111027377605,凯迪尚府,2010,116.372751,39.884391,xicheng,106515
1111027373893,德胜世嘉,2002,116.397081,39.954245,xicheng,133796
1111027379865,团结大院,1980,116.356735,39.942857,xicheng,101754
1111027375911,冰窖口胡同73号院,1983,116.380913,39.957397,xicheng,143678
1111027381775,远见国际公寓,2008,116.343502,39.894784,xicheng,83350
1111027374452,富卓花园,2003,116.382855,39.899213,xicheng,139099
1111027379076,融泽府,2002,116.353679,39.908116,xicheng,143548
1111027380796,西黄城根南街一区,1980,116.384975,39.921444,xicheng,141348
1111027381505,右安门内西街甲10号院,1980,116.366335,39.877194,xicheng,97721
1111027380506,温馨家园,1999,116.36031,39.909163,xicheng,140293
1111027382110,玉桃园一区,1993,116.364857,39.947964,xicheng,104608
1111027382139,远雄大观,2009,116.374589,39.879474,xicheng,92608
1111027379666,三义里,1980,116.335522,39.894243,xicheng,87515
1111027374492,广安苑一期,1986,116.351265,39.894025,xicheng,95298
1111027376190,百万庄中里,1975,116.344169,39.935125,xicheng,111282
1111027375570,安德路,1979,116.395668,39.957522,xicheng,125670
1111027374748,广信嘉园,2002,116.359909,39.896558,xicheng,72935
1111027380568,新安中里,1970,116.368001,39.883114,xicheng,95172
1111027377884,丽豪园,1999,116.394615,39.953789,xicheng,126547
1111027379049,荣宁园,2001,116.358491,39.879543,xicheng,79807
1111027378900,汽南小区,1952,116.347957,39.907101,xicheng,130031
1111027381264,新外大街6号院,1978,116.378481,39.969658,xicheng,137950
1111027374722,耕天下,2003,116.398004,39.878941,xicheng,120624
1111027374170,阜成门南大街,1980,116.362583,39.925143,xicheng,108945
1111027376247,白云观,1973,116.352941,39.904679,xicheng,125558
1111027376180,百万庄大街21号院,2012,116.352702,39.934285,xicheng,114062
1111027374232,枫桦豪景二期,2003,116.37856,39.893222,xicheng,114312
1111027379411,三里河东路,1987,116.352035,39.916799,xicheng,113738
1111027374489,广安苑二期,2002,116.351624,39.889592,xicheng,94063
1111027374196,复地西绒线26号,2009,116.383881,39.909637,xicheng,117620
1111027376720,车站西街17号院,1985,116.347196,39.884733,xicheng,84905
1111027375708,北滨河路2号院,1992,116.35854,39.906424,xicheng,139574
1111027376543,椿树馆街35号院,1983,116.352791,39.889814,xicheng,98605
1111027380840,新华里12号院,2004,116.356148,39.941263,xicheng,108455
1111027373953,德外大街乙12号院,1978,116.386786,39.966887,xicheng,123096
1111027380949,信建里小区,1978,116.375911,39.881969,xicheng,103102
1111027374233,枫桦豪景一期,2002,116.378488,39.894288,xicheng,101157
1111027376873,大拐棒胡同,1924,116.382195,39.933353,xicheng,137837
1111027373881,第三区,2009,116.334817,39.884391,xicheng,58455
1111027381718,盈华盛嘉,2005,116.356542,39.921708,xicheng,155474
1111027379927,天宁寺西里,1979,116.350008,39.898877,xicheng,84551
1111027379911,铁路巷,1980,116.354187,39.94337,xicheng,109013
1111027375811,白广路6号院,1950,116.365739,39.890384,xicheng,84066
1111041090262,建邦礼仕阁,2010,116.357611,39.916378,xicheng,112899
1111027374432,法源寺西里小区,1998,116.375232,39.890415,xicheng,84849
1111027374403,复兴门北大街,1980,116.362817,39.919343,xicheng,114429
1111027381504,右安门内西街1号院,1990,116.365761,39.879219,xicheng,90625
1111027374174,阜成门外大街,1950,116.357508,39.928132,xicheng,113117
1111027377920,灵境胡同,1959,116.386167,39.921233,xicheng,133276
1111027379690,三义西里,1980,116.334012,39.894005,xicheng,84307
1111027374889,槐柏树街南里,1980,116.361019,39.90136,xicheng,94313
1111027382102,月坛西街乙2号院,1990,116.356377,39.923198,xicheng,118383
1111027375434,黑窑厂西里,1960,116.387228,39.886024,xicheng,118637
1111027379208,什坊街2号院,1979,116.391379,39.96694,xicheng,132673
1111027375735,白菜湾社区,1991,116.354295,39.891958,xicheng,101308
1111027375411,华远北街,2000,116.378349,39.920048,xicheng,130754
1111027381894,玉廊园,1998,116.370449,39.935622,xicheng,119675
1111027380100,天缘公寓,1999,116.358011,39.882948,xicheng,63055
1111027379429,三里河一区2号院,1998,116.348334,39.923338,xicheng,142202
1111027382685,真武庙六里,1955,116.356219,39.907821,xicheng,126965
1111027380792,西黄城根45号院,1978,116.383716,39.923114,xicheng,141956
1111027375736,白菜湾四巷17号院,1980,116.354036,39.890734,xicheng,102025
1111027373922,德胜置业,2005,116.38894,39.968913,xicheng,80755
1111027380105,塔院胡同12号院,1983,116.387942,39.962414,xicheng,122959
1111027379828,泰和嘉苑,2003,116.368357,39.889659,xicheng,89790
1111027381063,新明嘉园,2000,116.38077,39.966384,xicheng,124206
1111027382077,樱桃二条8号院,2004,116.367877,39.886533,xicheng,87593
1111027376419,车公庄中里,1956,116.348241,39.938327,xicheng,95988
1111027375088,红居南街,1980,116.347722,39.887603,xicheng,89894
1111027379207,什坊街,1965,116.390606,39.968195,xicheng,124119
1111027375127,红莲北里17号院,1999,116.340037,39.891708,xicheng,97397
1111027379925,天宁寺前街北里,1990,116.351631,39.899035,xicheng,87903
1111027374124,二七剧场路,1976,116.352183,39.915674,xicheng,118346
1111027378581,南沙沟小区,1974,116.342913,39.921718,xicheng,156672
1111027381193,小石桥胡同11号院,1976,116.39769,39.95265,xicheng,130749
1111027380707,新风街甲1号,1998,116.383895,39.970656,xicheng,132776
1111027375121,航空胡同40号院,2000,116.380346,39.944758,xicheng,112418
1111027381788,姚家井二巷,1990,116.381753,39.88118,xicheng,105926
1111027380695,新风北街,1984,116.38318,39.971842,xicheng,138550
1111027377011,金宸国际公寓,2000,116.368189,39.918967,xicheng,131925
1111027380705,新风街,1976,116.381479,39.967977,xicheng,139677
1111027382070,月坛北小街1号院,1997,116.352592,39.927789,xicheng,111965
1111027378331,马连道西里,1976,116.332489,39.89064,xicheng,81056
1111027378523,牛街18,2005,116.370937,39.889555,xicheng,86037
1111027379412,三里河东路7号院,1992,116.349792,39.925284,xicheng,103819
1111027379409,三里河北街3号院,1990,116.345194,39.922042,xicheng,132989
1111027378049,里仁街3号院,1995,116.377262,39.883712,xicheng,106434
1111027382101,月坛西街西里,1954,116.355743,39.923029,xicheng,115100
1111027376787,大乘巷,1959,116.372793,39.941647,xicheng,115450
1111027376264,白云路七号院,1987,116.34816,39.904437,xicheng,124531
1111027375078,红居街10号院,1997,116.345886,39.894357,xicheng,102006
1111027378792,青春无限,2003,116.369702,39.890309,xicheng,76002
1111027381995,羊肉胡同120号院,1989,116.372513,39.928442,xicheng,117748
1111027381172,小市口胡同3号院,1990,116.391541,39.956199,xicheng,130346
1111027381271,新外大街乙8号院,2002,116.3788,39.967942,xicheng,144074
1111027378419,木樨地,1950,116.345639,39.909672,xicheng,107916
1111027374548,国电中兴家园,1989,116.357162,39.925796,xicheng,112114
1111027379410,三里河北街5号院,1991,116.345483,39.920877,xicheng,136498
1111027377890,丽华苑,1997,116.375631,39.916365,xicheng,165243
1111027378050,里仁街6号院,1978,116.376538,39.880102,xicheng,108458
1111027379038,瑞莲家园,2001,116.335075,39.88232,xicheng,66970
1111027381194,小石桥胡同3号院,1983,116.398824,39.952474,xicheng,132844
1111027381288,宣武门外东大街,1970,116.385336,39.905491,xicheng,111402
1111027376001,北礼士路62号院,1995,116.360447,39.935229,xicheng,90597
1111027382684,真武庙,1960,116.356894,39.911427,xicheng,121383
1111027378557,南礼士路三条北里,1960,116.357162,39.918178,xicheng,109680
1111027382001,育人里小区,1996,116.372222,39.880938,xicheng,100686
1111027382681,真武家园,2008,116.355788,39.910591,xicheng,127094
1111027376366,葱店胡同2号院,1995,116.364387,39.943285,xicheng,125428
1111027377019,教场口街2号院,2000,116.389863,39.959641,xicheng,132418
1111027379987,陶然居,1999,116.380262,39.888135,xicheng,79473
1111027378654,南线里小区,1990,116.358644,39.892101,xicheng,85341
1111027381254,新外大街10号院,1963,116.378929,39.967071,xicheng,126691
1111027377189,佳慧雅园,2008,116.383142,39.909077,xicheng,123327
1111027378674,南运巷,1980,116.357099,39.888035,xicheng,81158
1111027379900,佟麟阁路62号院,1985,116.375466,39.907458,xicheng,138999
1111027378778,前半壁街,1955,116.368968,39.944401,xicheng,115364
1111027374888,槐柏树街北里,1979,116.360877,39.902029,xicheng,101914
1111027376072,北三环中路12号院,1980,116.392381,39.974142,xicheng,120634
1111027378216,龙岳洲,2003,116.396959,39.949642,xicheng,135922
1111027378315,民康胡同30号院,1988,116.364332,39.927822,xicheng,125655
1111027374404,复兴门南大街,1975,116.362276,39.909851,xicheng,134251
1111027378996,人定湖北巷,1980,116.393941,39.968963,xicheng,123907
1111027380263,文华园,1995,116.360764,39.937436,xicheng,113214
1111027377854,莲花池东路24号院,1999,116.344986,39.902401,xicheng,83990
1111027381465,西直门南小街,1950,116.365453,39.936772,xicheng,132899
1111027379491,三庙街,1973,116.372635,39.903262,xicheng,103092
1111027374734,广外南街50号院,1999,116.354137,39.88835,xicheng,81858
1111027376718,车站西街13号院,1989,116.348154,39.885631,xicheng,89613
1111027381020,相来家园,2004,116.365233,39.903656,xicheng,115787
1111027378878,前门西大街,1970,116.395569,39.906059,xicheng,117401
1111027382472,中华家园,2002,116.360418,39.877792,xicheng,75732
1111027378550,南礼士路46号院,2014,116.360068,39.924392,xicheng,134334
1111027374622,高家寨,1980,116.389698,39.893249,xicheng,107315
1111027374737,国务院宿舍,1956,116.359534,39.907403,xicheng,113500
1111027378781,汽北小区,1950,116.348211,39.909325,xicheng,114260
1111027380537,湾子街社区,1980,116.330551,39.891981,xicheng,75736
1111027376294,白纸坊西街,1970,116.364685,39.883364,xicheng,84784
1111027374839,国英一号,2000,116.365232,39.942058,xicheng,60258
1111027373722,大井胡同,1984,116.390781,39.959476,xicheng,124316
1111027378628,南纬路2号院,1975,116.402217,39.884746,xicheng,106398
1111027374575,感化胡同3号院,1978,116.371533,39.901713,xicheng,106175
1111027381457,西直门内大街,1982,116.370409,39.945451,xicheng,117433
1111027382498,中加大厦,1999,116.358419,39.875823,xicheng,60356
1111027382268,鸭子桥北里,1971,116.354792,39.885022,xicheng,88523
1111027374983,海格国际,2005,116.381523,39.900833,xicheng,90714
1111027373950,德外大街2号院,1996,116.387765,39.973297,xicheng,119108
1111027374487,广安小区,1990,116.346059,39.886105,xicheng,70242
1111041148422,白纸坊街25号院,1975,116.366299,39.882117,xicheng,95909
1111027380566,新安南里,1978,116.367964,39.880515,xicheng,103190
1111027380888,新海苑,2004,116.380316,39.956247,xicheng,159205
1111027382090,月坛南街北里,1984,116.352166,39.920264,xicheng,120531
1111027374172,阜成门外北街,1956,116.35055,39.929209,xicheng,104041
1111027380595,西便门内大街79号院,1953,116.357996,39.901284,xicheng,85324
1111027376721,车站西街9号院,1990,116.347288,39.886583,xicheng,84843
1111027382682,真武庙二里,1950,116.350898,39.91087,xicheng,106702
1111027380826,祥和家苑,2004,116.36956,39.889365,xicheng,86011
1111027380856,小红庙南里,1986,116.343591,39.885424,xicheng,85197
1111027375162,洪茂沟社区,1958,116.348961,39.924607,xicheng,117190
1111027375896,鲍家街,1985,116.365657,39.908052,xicheng,158845
1111027379415,三里河东路甲8号院,1996,116.352577,39.922098,xicheng,136053
1111027379419,三里河居民区,1970,116.344116,39.921551,xicheng,138747
1111027376002,北礼士路70号院,1974,116.360688,39.93302,xicheng,104836
1111027379249,上国阙,2008,116.383933,39.90762,xicheng,128752
1111027380988,新康街甲一号,1995,116.381217,39.96423,xicheng,132903
1111027382269,鸭子桥路,1970,116.35374,39.881059,xicheng,79545
1111027375103,红居斜街,1980,116.344119,39.889941,xicheng,87327
1111027380816,西华经典,2000,116.367457,39.894848,xicheng,88359
1111027376173,百万庄1号院,1985,116.361669,39.934204,xicheng,103171
1111027378929,前桃园1号,1984,116.368611,39.949616,xicheng,105935
1111027375529,宏英园小区,2002,116.375652,39.923863,xicheng,169695
1111027379976,天桥南里,2002,116.402378,39.888952,xicheng,85768
1111027375568,安德东里,1960,116.39897,39.96307,xicheng,123184
1111027374169,阜成门北大街,1981,116.362081,39.932743,xicheng,109566
1111027376382,春风胡同社区,1991,116.371997,39.890246,xicheng,85722
1111027377856,莲花池东路甲5号院,1964,116.345325,39.903799,xicheng,89119
1111027381231,西绦胡同,1980,116.390465,39.954022,xicheng,133598
1111027374735,广外南街63号院,2000,116.352266,39.886243,xicheng,85488
1111027378327,马连道路5号院,1981,116.332984,39.893644,xicheng,77958
1111027373750,大六部口,1982,116.387682,39.912013,xicheng,129874
1111027382631,钟声胡同,1965,116.384585,39.91497,xicheng,114125
1111027374480,广安门外车站东街,1978,116.352517,39.891585,xicheng,96825
1111027382087,月坛南街19号院,1991,116.355272,39.919868,xicheng,115445
1111027376759,地藏庵,1955,116.356742,39.916768,xicheng,110005
1111027377314,京桥国际公馆,2006,116.356307,39.940207,xicheng,76598
1111027380805,信恒大厦,2003,116.368256,39.894737,xicheng,76997
1111027374906,华采嘉园,2003,116.380419,39.965554,xicheng,141579
1111027381108,新融苑,2000,116.377722,39.909568,xicheng,133415
1111027378026,六铺炕一区6号院,1996,116.398939,39.962416,xicheng,115431
1111027378559,南礼士路三条南里,2008,116.358612,39.917188,xicheng,102400
1111027376925,大红罗厂3号院,2000,116.382698,39.93409,xicheng,145614
1111027373949,德外大街12号院,2001,116.388064,39.967649,xicheng,151021
1111027378132,罗贤胡同,1965,116.387083,39.918701,xicheng,117411
1111027376275,北樱桃园17号院,2005,116.367503,39.887283,xicheng,89792
1111027378709,盆儿胡同62号院,1988,116.377703,39.885246,xicheng,99760
1111027376405,车公庄大街,1978,116.356958,39.938403,xicheng,101825
1111040862944,白广路东里1号院,1999,116.36753,39.888592,xicheng,94909
1111027381332,新兴中巷,1974,116.35445,39.947385,xicheng,99545
1111027374778,广益大厦,2006,116.362345,39.896533,xicheng,73822
1111027381168,西什库大街19号,1994,116.38606,39.933467,xicheng,126471
1111027380552,新安北里,1980,116.369558,39.885481,xicheng,92906
1111027374175,阜成门外大街甲40号,1978,116.344546,39.928168,xicheng,127417
1111027374785,官园胡同,1984,116.368642,39.937671,xicheng,136419
1111027376171,百万庄13号院,1977,116.356554,39.934287,xicheng,106402
1111027381467,西直门外大街,1989,116.352464,39.943973,xicheng,108498
1111027380146,天泽园,2001,116.360514,39.8992,xicheng,89214
1111027375714,半步桥13号院,1990,116.373325,39.879306,xicheng,105092
1111027376296,白纸坊西街6号院,1990,116.368869,39.883272,xicheng,96217
1111027376314,长安兴融中心,2004,116.368586,39.910692,xicheng,115801
1111027374958,虎坊路小区,1950,116.392587,39.890547,xicheng,101646
1111027373882,大石桥胡同10号院,1980,116.396427,39.952786,xicheng,137928
1111027376699,车站东街甲9号院,1995,116.351646,39.89184,xicheng,94919
1111027382068,月坛北街甲1号院,1989,116.361515,39.924606,xicheng,116474
1111027374694,贵仁居,2007,116.380185,39.886547,xicheng,88960
1111063623200,中信国安府,2017,116.383685,39.901948,xicheng,173866
1111027373887,都市晴园,2000,116.362839,39.883229,xicheng,73731
1111027376636,朝阳庵,1956,116.343587,39.940452,xicheng,99664
1111027380372,五路通北街,1964,116.38899,39.966537,xicheng,115883
1111027379941,太平街甲乙18号院,1980,116.395594,39.881597,xicheng,108554
1111027375089,红居南街1号院,1984,116.345906,39.889201,xicheng,87111
1111027381112,西四北大街156号,1944,116.380263,39.933468,xicheng,137201
1111063837177,紫金印象,2016,116.371118,39.879549,xicheng,
1111027382089,月坛南街37号院,1976,116.353219,39.91994,xicheng,109179
1111027375245,华荣公寓,2005,116.368931,39.915513,xicheng,143367
1111041175293,京铁和园,2013,116.349619,39.88624,xicheng,
1111027382686,真武庙三里,1961,116.350809,39.90925,xicheng,106678
1111027380789,小后仓,1990,116.368372,39.943265,xicheng,111481
1111027379487,三庙大院,1990,116.370214,39.903843,xicheng,97602
1111027375301,红土店南里,1960,116.383972,39.886658,xicheng,96651
1111027376344,长椿街西里,1973,116.369558,39.904209,xicheng,104183
1111027373874,德胜门西大街74号,1986,116.366797,39.950382,xicheng,104210
1111027376184,百万庄南街,1969,116.343181,39.931157,xicheng,109424
1111027379132,水电部宿舍,1950,116.35566,39.925071,xicheng,95309
1111027380252,物华大厦,1999,116.359583,39.9376,xicheng,56889
1111027375133,华龙大厦,2006,116.389815,39.977082,xicheng,55085
1111027374478,广安门内大街,1970,116.370773,39.894583,xicheng,88328
1111027379960,太平桥大街,1989,116.371538,39.928528,xicheng,138361
1111027379930,太平仓胡同,1980,116.38165,39.937698,xicheng,137020
1111027374111,二龙路,1980,116.373416,39.916216,xicheng,161051
1111027377117,建功东里,1980,116.3609,39.883029,xicheng,85655
1111027375006,黄瓜园,1957,116.34303,39.931886,xicheng,102462
1111027373873,德胜门西大街64号,1980,116.375964,39.95357,xicheng,106152
1111027380373,五路通北街3号院,1978,116.388491,39.965226,xicheng,140475
1111027376407,车公庄大街6号院,1990,116.354272,39.937835,xicheng,131915
1111027381502,右安门内大街,1950,116.370807,39.885385,xicheng,91561
1111027380987,新康街3号院,1982,116.379102,39.964297,xicheng,128703
1111027376000,北礼士路60号院,1982,116.360209,39.936115,xicheng,109866
1111027380319,外交学院,1980,116.352098,39.933743,xicheng,117454
1111027379408,三里河北街2号院,1973,116.345563,39.92299,xicheng,141025
1111027376289,白纸坊东街,1980,116.372878,39.883805,xicheng,95548
1111027374485,广安门小区,1990,116.35011,39.891538,xicheng,84395
1111027382091,月坛南街小四道口,1993,116.353316,39.922068,xicheng,110388
1111027373976,东新开胡同,1989,116.374559,39.948768,xicheng,116617
1111027376717,车站西街,1977,116.348101,39.887054,xicheng,88202
1111027376175,百万庄7号院,1977,116.358943,39.934244,xicheng,115780
1111027380935,新街口东街,1905,116.38475,39.948346,xicheng,128396
1111027379746,天安国汇,2004,116.382299,39.909828,xicheng,80000
1111027378556,南礼士路甲62号院,1978,116.360351,39.915158,xicheng,112925
1111027373951,德外大街4号院,1999,116.389175,39.972756,xicheng,128352
1111027378130,蓝星公寓,2003,116.399309,39.958033,xicheng,131356
1111027376996,进步巷,1979,116.355147,39.943645,xicheng,99631
1111027382590,枣林前街,1975,116.362826,39.889264,xicheng,85114
1111027378648,南线阁41号院,2000,116.35978,39.889627,xicheng,86197
1111027375540,华尊大厦,2000,116.389299,39.97758,xicheng,56250
1111027375090,红居南街6号院,1986,116.345081,39.889097,xicheng,84817
1111027376890,东冠英胡同,1959,116.373092,39.942816,xicheng,116697
1111027378647,南线阁39号院,1999,116.359861,39.890339,xicheng,85141
1111027378332,马连道中街,1958,116.339434,39.892042,xicheng,91239
1111027374805,国英绿景公寓,2000,116.366406,39.942141,xicheng,76885
1111027382692,真武庙五里,1952,116.355065,39.908433,xicheng,131026
1111027382086,月坛南街,1980,116.347347,39.919653,xicheng,116162
1111027381053,小马厂东里,1986,116.348641,39.902877,xicheng,80359
1111027375104,红居斜街4号院,1979,116.344294,39.889416,xicheng,87924
1111027382099,月坛西街东里21号院,1980,116.356823,39.922325,xicheng,117625
1111027382687,真武庙四里,1953,116.354294,39.909054,xicheng,114360
1111027382080,云梯胡同,1981,116.373767,39.919498,xicheng,168240
1111027381113,西四北大街160号,1987,116.38071,39.932684,xicheng,135406
1111027379414,三里河东路甲14号院,1976,116.351134,39.914348,xicheng,109860
1111027374444,福州馆前街,1995,116.389497,39.891803,xicheng,101553
1111027376355,长椿苑,1998,116.373916,39.899981,xicheng,97477
1111027378220,龙爪槐胡同9号院,1990,116.383498,39.881604,xicheng,106742
1111027374643,鼓楼西大街,1960,116.39208,39.951543,xicheng,150888
1111027378323,马连道北里,1980,116.331891,39.894459,xicheng,86056
1111027375727,宝产胡同15号院,1999,116.377219,39.941559,xicheng,117990
1111027382270,鸭子桥南里,1980,116.355368,39.882268,xicheng,80451
1111027375336,后桃园胡同9号院,1980,116.367572,39.949902,xicheng,111970
1111027376071,北三环中路,1979,116.390095,39.974052,xicheng,115734
1111027380497,文兴东街3号院,1980,116.345747,39.939113,xicheng,110224
1111027382098,月坛西街24号院,1980,116.356399,39.920782,xicheng,122488
1111027377766,禄长街头条19号院,1976,116.396238,39.888063,xicheng,92835
1111027374886,槐柏树街,1956,116.366959,39.902344,xicheng,99013
1111027381054,小马厂南里,1989,116.346064,39.900156,xicheng,92995
1111027374173,阜成门外北四巷,1965,116.353533,39.929339,xicheng,107885
1111027376345,长椿里,1956,116.369711,39.899408,xicheng,91003
1111027378035,龙泉胡同,1978,116.385401,39.884086,xicheng,103591
1111027373863,德胜里西街3号院,1990,116.3821,39.960535,xicheng,152193
1111027382148,育新街,1977,116.38048,39.878233,xicheng,93190
1111027382100,月坛西街东里22号院,1983,116.35616,39.920844,xicheng,118537
1111027377305,金贸中心,2010,116.35592,39.944282,xicheng,52752
1111027376698,车站东街甲5号院,1987,116.352331,39.894131,xicheng,97296
1111027380939,新街口七条15号院,1994,116.376251,39.953253,xicheng,100637
1111027382266,鸭子桥43号院,1982,116.3531,39.879839,xicheng,80393
1111027379158,石灯胡同6号院,1980,116.372224,39.906987,xicheng,172847
1111027381257,新外大街18号,1990,116.378237,39.961403,xicheng,132316
1111027373942,东桃园,1992,116.3688,39.949395,xicheng,110146
1111027373864,德胜里西街5号院,1976,116.38197,39.960725,xicheng,148146
1111027380977,新纪元公寓,1998,116.344774,39.894118,xicheng,74316
1111027374815,官园南里三区,1986,116.366428,39.937519,xicheng,135574
1111027378511,南横西街,1978,116.375072,39.889066,xicheng,93570
1111027381269,新外大街甲4号院,1980,116.377413,39.970565,xicheng,152181
1111027376182,百万庄大街乙21号院,1991,116.352778,39.934282,xicheng,110622
1111027380502,文兴街,1989,116.34262,39.941318,xicheng,100266
1111027375022,恒华国际商务中心,2003,116.352129,39.923913,xicheng,79588
1111027378463,南滨河路,1984,116.354961,39.881989,xicheng,74000
1111027375246,海润花园,1998,116.335021,39.893479,xicheng,81674
1111027376488,成铭大厦,1999,116.363229,39.945163,xicheng,48463
1111027380659,新德街20号,1985,116.380859,39.962181,xicheng,126262
1111027374851,光泽胡同,1980,116.380482,39.949173,xicheng,121999
1111027378219,龙爪槐胡同,1998,116.383905,39.883246,xicheng,100607
1111027381468,西直门外南路,1984,116.3472,39.943146,xicheng,99663
1111027381468,西直门外南路,1984,116.3472,39.943146,xicheng,99663
1111027375095,郝家湾,1974,116.341452,39.941838,xicheng,104350
1111027376191,百万庄子区,1954,116.343452,39.937521,xicheng,100128
1111027378831,邱家胡同,1984,116.383896,39.948249,xicheng,124659
1111027380596,西便门内大街97号院,1979,116.359157,39.898659,xicheng,88047
1111027375331,核桃园,1979,116.362162,39.897196,xicheng,75614
1111027375913,冰窖口胡同79号,1976,116.378492,39.957296,xicheng,145404
1111027374145,富成大厦,1999,116.344245,39.929447,xicheng,81225
1111027381469,西直门外南路21号院,1991,116.340543,39.942214,xicheng,101486
1111027382072,月坛北小街甲7号院,1978,116.352622,39.925716,xicheng,111055
1111027374244,富宏馨居,1990,116.387501,39.964612,xicheng,86229
1111027376188,百万庄未区,1950,116.347242,39.937051,xicheng,99483
1111027379514,手帕口西一巷,1980,116.348909,39.889763,xicheng,87263
1111027377261,璟莲馨苑,2001,116.330519,39.889832,xicheng,67256
1111027381315,西斜街,1977,116.377275,39.922712,xicheng,189766
1111027379091,三不老胡同,1923,116.383954,39.945512,xicheng,118059
1111027380104,塔院胡同,1979,116.386676,39.963996,xicheng,131986
1111027381460,西直门内大街237号,1980,116.370246,39.946832,xicheng,103431
1111027382515,中京几道,1984,116.373035,39.91477,xicheng,165192
1111027373809,大钱市胡同,1980,116.357162,39.948461,xicheng,109251
1111027379002,儒福里,1950,116.382069,39.885767,xicheng,99766
1111027381470,西直门外南路24号院,1986,116.349009,39.942023,xicheng,105531
1111027378328,马连道路甲18号院,1995,116.334468,39.882617,xicheng,81264
1111027378646,南线阁37号院,1998,116.359729,39.891277,xicheng,86128
1111027379148,圣都大厦,2001,116.363131,39.883557,xicheng,62866
1111027379580,三塔社区,1975,116.350856,39.936512,xicheng,116684
1111041147156,德胜门外大街1号院,1984,116.385252,39.971813,xicheng,137739
1111027375159,后马厂胡同,1979,116.395956,39.951323,xicheng,146167
1111041161121,南线阁9号院,2000,116.358636,39.894128,xicheng,102646
1111027375427,黑窑厂东街,1984,116.389321,39.887191,xicheng,103210
1111027374791,广义街10号院,1992,116.362848,39.895705,xicheng,88175
1111027378043,里仁东街,1983,116.381677,39.882194,xicheng,110493
1111027381466,西直门外大街102号,1989,116.354198,39.944609,xicheng,96476
1111027377853,莲花池东路,1984,116.348004,39.903716,xicheng,121346
1111027378118,柳巷15号院,1985,116.373844,39.944759,xicheng,123318
1111027381055,小马厂西里,1980,116.346521,39.90287,xicheng,85981
1111027376290,白纸坊东街25号院,1985,116.376524,39.885035,xicheng,96361
1111042529329,宣武门西大街26号院,1992,116.363495,39.904119,xicheng,107104
1111027380505,文兴街3号院,1981,116.341801,39.941471,xicheng,96603
1111027374479,广安门南街,1999,116.357588,39.886564,xicheng,82635
1111027378423,马相西巷,1983,116.368054,39.948116,xicheng,105468
1111027382069,月坛北小街,1973,116.352842,39.925235,xicheng,109467
1111027374354,富通大厦,2000,116.36081,39.938567,xicheng,98516
1111027378645,南线阁35号院,1999,116.359853,39.892198,xicheng,82078
1111027378470,南菜园街1号院,1990,116.359013,39.881633,xicheng,91785
1111027379546,松树街,1957,116.388625,39.943618,xicheng,111601
1111027381499,永安路小区,1950,116.392425,39.892963,xicheng,78600
1111027381503,右安门内西街,1976,116.367183,39.878955,xicheng,107101
1111027376338,长椿街12号院,2000,116.370306,39.901872,xicheng,106898
1111027381268,新外大街甲28号,1977,116.378381,39.959053,xicheng,140032
1111027376337,长椿街,1950,116.370295,39.90216,xicheng,91173
1111027376187,百万庄午区,1954,116.346778,39.936159,xicheng,103876
1111046958576,五路通北街1号,1958,116.387711,39.966789,xicheng,117336
1111027374484,广安门外南街67号院,1991,116.352032,39.885605,xicheng,95258
1111027377233,金龙公寓,1999,116.367958,39.919565,xicheng,165225
1111027374176,阜成门外大街乙40号,1978,116.343647,39.928265,xicheng,137441
1111027382587,展览路24号院,1980,116.352537,39.933251,xicheng,88568
1111027381779,永居胡同,1980,116.351851,39.896088,xicheng,86175
1111027382605,中毛家湾,1914,116.382881,39.935942,xicheng,136251
1111027377585,京泽苑,2003,116.335143,39.88306,xicheng,80335
1111027379513,手帕口南街40号院,1984,116.349884,39.89255,xicheng,83128
1111027374305,富明公寓,1999,116.366087,39.894322,xicheng,90816
1111027377987,刘兰塑,1984,116.387511,39.930912,xicheng,132260
1111027375210,和平门外东街,1975,116.396207,39.905728,xicheng,119960
1111027376189,百万庄寅区,1954,116.342704,39.935355,xicheng,101765
1111027373972,东斜街,1980,116.381853,39.922083,xicheng,138723
1111027374205,富国街,1992,116.372546,39.93729,xicheng,130703
1111027377518,教育街,1980,116.378955,39.910952,xicheng,135765
1111041135872,德胜里二区,1990,116.383452,39.961023,xicheng,141350
1111027380662,新德街甲31号院,1986,116.383489,39.963834,xicheng,142226
1111027375335,后桃园胡同10号,1958,116.367421,39.949427,xicheng,92662
1111027376177,百万庄辰区,1954,116.346205,39.934584,xicheng,94653
1111027382660,砖塔胡同78号院,1958,116.374824,39.927803,xicheng,103846
1111027381308,新兴东巷,1983,116.356627,39.946769,xicheng,93170
1111027373883,大石桥胡同29号院,1981,116.396879,39.953216,xicheng,136620
1111027378502,南华东街2号院,1964,116.392403,39.888146,xicheng,97013
1111027382588,展览路甲22号院,1981,116.351659,39.935714,xicheng,107794
1111027378009,骡马市大街,1960,116.388558,39.895076,xicheng,104162
1111027376186,百万庄巳区,1954,116.346978,39.935411,xicheng,97308
1111027380795,西黄城根南街9号院,1973,116.383026,39.925272,xicheng,126543
1111027375981,巴黎公寓,1994,116.342702,39.9198,xicheng,73478
1111027378326,马连道路13号院,1990,116.328089,39.886274,xicheng,79018
1111027379701,尚座大厦,2002,116.374684,39.906371,xicheng,89550
1111027374885,槐柏树后街,1987,116.366343,39.903127,xicheng,94346
1111027379421,三里河路4号院,1980,116.340285,39.942467,xicheng,93179
1111027380966,新居西里,1979,116.352478,39.897612,xicheng,84256
1111027376835,定阜街10号院,1982,116.390943,39.941711,xicheng,127570
1111027378548,南礼士路,1976,116.359566,39.926986,xicheng,87739
1111027380382,万明路18号院,1989,116.396513,39.894353,xicheng,83808
1111027376183,百万庄卯区,1954,116.342681,39.934278,xicheng,107867
1111027375250,华仁路小区,1976,116.397404,39.893915,xicheng,85112
1111027376178,百万庄丑区,1954,116.342944,39.936309,xicheng,101434
1111027373799,东南园,1989,116.394156,39.900254,xicheng,94801
1111027376359,厂甸11号院,1980,116.391672,39.902881,xicheng,110093
1111027376172,百万庄17号院,1976,116.35546,39.934202,xicheng,122609
1111027380954,西交民巷62号院,1980,116.396964,39.907715,xicheng,125159
1111027377765,禄长街头条,1988,116.397288,39.888875,xicheng,87601
1111042664967,新开胡同,1978,116.396311,39.951731,xicheng,126867
1111027375813,白广路7号院,1983,116.363751,39.890368,xicheng,84093
1111027378031,老墙根38号院,1997,116.373898,39.898927,xicheng,108802
1111043180598,虎坊路甲15号院,1981,116.390728,39.891845,xicheng,105405
1111027378764,葡萄园,1955,116.349698,39.936752,xicheng,93777
1111027379420,三里河路,1980,116.342432,39.929784,xicheng,114690
1111027381327,小西天东里,1950,116.379701,39.961213,xicheng,125807
1111027381508,右安门西街,1974,116.366352,39.876062,xicheng,103849
1111027375870,北环中心,2006,116.388479,39.978412,xicheng,41060
1111027374336,丰盛胡同,1974,116.378026,39.92462,xicheng,192200
1111027376692,参政胡同19号院,1986,116.37785,39.911004,xicheng,140635
1111027378625,南纬路,1964,116.399347,39.886776,xicheng,98551
1111027378644,南线阁,1961,116.360198,39.893796,xicheng,80996
1111027378865,前马厂胡同,1960,116.399148,39.950494,xicheng,131522
1111027381636,岳峰园,1990,116.374154,39.896982,xicheng,79547
1111041129771,辟才胡同42号院,1954,116.377909,39.919436,xicheng,127422
1111027377126,金果胡同,1985,116.373341,39.939981,xicheng,115204
1111027375716,半步桥6号院,1990,116.376377,39.88353,xicheng,96551
1111027376569,城市之光,1990,116.360495,39.889416,xicheng,74457
1111027378875,前毛家湾3号,1984,116.380692,39.935811,xicheng,137948
1111027379975,天庆胡同,1984,116.387547,39.932353,xicheng,142787
1111027378637,南纬路南巷9号院,1983,116.397253,39.885966,xicheng,106098
1111027375119,航空胡同11号院,1984,116.381079,39.945346,xicheng,124223
1111027381292,宣武门外西里,1970,116.377988,39.90484,xicheng,104994
1111027379500,水泥厂宿舍楼,1982,116.354474,39.897094,xicheng,85248
1111042945271,太平街20号旁门,1984,116.396923,39.880949,xicheng,106951
1111027382071,月坛北小街5号院,1960,116.352285,39.926918,xicheng,97812
1111027376174,百万庄2号院,1956,116.359081,39.9336,xicheng,105065
1111027373729,东经路98号,1997,116.4002,39.887945,xicheng,82980
1111027381869,永乐里10号院,1984,116.380352,39.882993,xicheng,101907
1111027382263,鸭子桥26号院,1979,116.354137,39.881469,xicheng,79275
1111027380814,兴华胡同,1930,116.389373,39.941031,xicheng,132203
1111027376146,北纬路49号院,1980,116.397862,39.889867,xicheng,91452
1111027380645,小乘巷,1985,116.373293,39.941673,xicheng,111274
1111027378670,南营房,1965,116.356542,39.926823,xicheng,107988
1111027375120,航空胡同22号院,1985,116.381462,39.945149,xicheng,118615
1111027381456,西直门北大街甲41号,1996,116.36151,39.956194,xicheng,82145
1111027375697,北安里9号院,1982,116.386741,39.91611,xicheng,125537
1111027378514,南横西街94号院,1960,116.373799,39.886623,xicheng,94553
1111027378553,南礼士路甲1号,1974,116.358882,39.927982,xicheng,92326
1111027381787,姚家井,1985,116.382074,39.881843,xicheng,114808
1111027381090,辛勤胡同,1983,116.38421,39.949616,xicheng,145887
1111027379035,熔炼厂宿舍,1980,116.344732,39.886202,xicheng,81161
1111027382088,月坛南街2号院,1970,116.360044,39.918951,xicheng,101869
1111027376179,百万庄大街,1990,116.341751,39.933962,xicheng,113212
1111027379423,三里河南二巷,1981,116.347838,39.918762,xicheng,119441
1111027381629,玉芙胡同,1978,116.364771,39.946997,xicheng,101838
1111027376053,北顺城街11号院,1963,116.365439,39.949061,xicheng,95011
1111046877894,东经路6号院,1998,116.400443,39.890634,xicheng,82848
1111027379924,天宁寺前街,1996,116.350039,39.897483,xicheng,75014
1111027381306,宣兴大厦,1996,116.364413,39.889294,xicheng,66837
1111027375816,白广路二条,1990,116.361806,39.891364,xicheng,84601
1111027379644,思源胡同28号院,1984,116.371845,39.898044,xicheng,97191
1111027382093,樱桃头条,1980,116.368612,39.888655,xicheng,70548
1111046595978,真武庙头条四号院,1951,116.3578,39.911484,xicheng,163705
1111027379413,三里河东路甲10号院,1980,116.352139,39.918835,xicheng,100224
1111027375850,滨河里,1957,116.35836,39.885661,xicheng,69128
1111027379989,泰然居,2002,116.377409,39.884054,xicheng,89587
1111027382661,砖塔胡同86号院,1958,116.373571,39.927647,xicheng,130570
1111027375821,报国寺东夹道1号东院,1957,116.366207,39.898568,xicheng,94711
1111027381778,英嘉公寓,1992,116.384462,39.907534,xicheng,70809
1111027373952,德外大街甲22号,1983,116.386225,39.963746,xicheng,112583
1111027378324,马连道东街,1988,116.341663,39.894173,xicheng,93760
1111027378355,门楼巷,1980,116.375619,39.893912,xicheng,79941
1110791973826706,中骏天宸,2018,116.390893,39.963443,xicheng,
1111047986643,北礼士路64号院,1982,116.360904,39.93539,xicheng,109573
1111027373728,东经路19号院,1982,116.399239,39.886042,xicheng,115517
1111027380504,文兴街2号院,1984,116.34404,39.941084,xicheng,97877
1111027374449,粉子胡同30号院,1981,116.376898,39.923804,xicheng,182214
1111027373782,大木仓胡同35号,1979,116.377048,39.918867,xicheng,115220
1111027374474,广安门北街,1992,116.357369,39.897225,xicheng,85333
1111027375825,报国寺西夹道32号院,1979,116.365265,39.898235,xicheng,87492
1111027376029,兵马司胡同,1958,116.379171,39.925284,xicheng,176292
1111027378910,权盛里,1983,116.376461,39.901153,xicheng,96383
1111027374796,广义街甲6号院,1986,116.364227,39.898166,xicheng,93448
1111046414966,月坛北小街7号院,1961,116.352318,39.926326,xicheng,92387
1111027381028,西廊下胡同二号院,1953,116.364862,39.943641,xicheng,128641
1111027381314,下斜街,1972,116.373089,39.902774,xicheng,102670
1111027376170,百万庄,1955,116.355356,39.933612,xicheng,90397
1111027379936,太平街5号楼,1980,116.393683,39.888132,xicheng,108057
1111027380953,西交民巷27号院,1978,116.396806,39.90839,xicheng,134148
1111027381266,新外大街甲12号院,1982,116.377969,39.965377,xicheng,135116
1111027374866,后半壁街8号,1985,116.368809,39.944986,xicheng,119884
1111027374809,广义里小区,1970,116.362812,39.900232,xicheng,113545
1111027381768,永居东里,1976,116.352581,39.896644,xicheng,78023
1111027376542,椿树馆街,1960,116.353367,39.888842,xicheng,104657
1111027379767,炭厂胡同,1980,116.387809,39.957922,xicheng,127125
1111027379445,双柳树头条,1980,116.389793,39.886752,xicheng,105906
1111027378560,南礼士路头条7号院,1985,116.355155,39.915291,xicheng,119052
1111027382200,育幼胡同,1961,116.371237,39.940753,xicheng,127359
1111027375819,白广路西里,1958,116.364929,39.887351,xicheng,81808
1111041816515,阜成门外大街36号院,1990,116.345183,39.92795,xicheng,124083
1111027377763,禄长街二条,1980,116.399283,39.888577,xicheng,87816
1111027376655,菜园街10号院,2003,116.361348,39.88786,xicheng,76044
1111041125888,西黄城根南街,1984,116.383608,39.928289,xicheng,136855
1111027376638,菜园北里,1973,116.35809,39.89049,xicheng,85355
1111027376148,北纬路52号院,1975,116.396747,39.890135,xicheng,105498
1111027381558,育德胡同,1959,116.375532,39.939538,xicheng,107770
1111027379931,太平仓胡同14号院,1982,116.381439,39.937204,xicheng,145483
1111027378047,里仁街1号院,1980,116.379438,39.882377,xicheng,97901
1111027378649,南线阁5号院,1972,116.359201,39.894582,xicheng,85891
1111027382646,中胜巷,1983,116.365035,39.885109,xicheng,91311
1111047732190,广外大街397号,1982,116.335789,39.896276,xicheng,81609
1111027378465,南半截胡同26号院,1979,116.379924,39.890295,xicheng,87643
1111027376641,菜园东里,1978,116.362257,39.887203,xicheng,
1111027378632,南纬路37号院,1999,116.396647,39.887326,xicheng,82259
1111027378329,马连道南街12号院,1981,116.331105,39.890343,xicheng,75998
1111027380917,新居东里,1990,116.353517,39.897253,xicheng,86359
1111027378500,南华东街,1964,116.392611,39.888799,xicheng,87379
1111027375808,白广路,1958,116.366163,39.891907,xicheng,85918
1111046627462,西绒线胡同,1990,116.390593,39.910488,xicheng,101209
1111027381116,西四北五条,1982,116.377222,39.935353,xicheng,106426
1111027380986,新康街1号院,1980,116.379467,39.964407,xicheng,133509
1111046173187,西四北三条,1978,116.37352,39.933604,xicheng,96161
1111027380332,苇坑胡同71号,1984,116.38168,39.946485,xicheng,107911
1111027378708,盆儿胡同61号院,1994,116.376765,39.885627,xicheng,95426
1111027381909,益民巷,1950,116.370284,39.888288,xicheng,63564
1111027374573,感化胡同14号院,1974,116.3709,39.89992,xicheng,95141
1111027376285,白纸坊北里,1980,116.361964,39.88589,xicheng,
1111027379642,思源胡同,1991,116.372773,39.897997,xicheng,92156
1111027380362,未来花园,1963,116.375658,39.88036,xicheng,89114
1111027376341,长椿街东里,1970,116.37191,39.904193,xicheng,91969
1111027380862,西海南沿34号,1976,116.383094,39.951459,xicheng,121188
1111027380255,文华胡同,1960,116.371155,39.910528,xicheng,
1111027376486,草岚子胡同,1982,116.388137,39.933118,xicheng,138933
1111027378874,前毛家湾,1978,116.381515,39.935209,xicheng,155862
1111027377440,建学胡同,1980,116.376639,39.897913,xicheng,77116
1111027376030,兵马司胡同6号院,1958,116.379023,39.924941,xicheng,145275
1111027375823,报国寺东夹道1号院,1980,116.367122,39.897752,xicheng,94303
1111027381171,西什库大街74号院,1984,116.386392,39.929524,xicheng,182622
1111041175852,月坛南街7号院,1978,116.35835,39.9201,xicheng,108222
1111027378330,马连道三巷,1974,116.33717,39.892014,xicheng,82073
1111027382012,榆树馆东里,1984,116.356501,39.943206,xicheng,
1111027375651,安平里,1982,116.390013,39.902705,xicheng,120701
1111027378029,老墙根129号院,1980,116.37338,39.899975,xicheng,91904
1111027381927,永内西街北里,1982,116.397045,39.879873,xicheng,103839
1111027379241,善果胡同2号院,1994,116.364562,39.898835,xicheng,92448
1111027374468,公安大学,1980,116.344379,39.907233,xicheng,85763
1111027380498,文兴东街5号院,1979,116.345017,39.939359,xicheng,111299
1111027374535,贵都国际,2003,116.354811,39.887465,xicheng,36249
1111027381490,右安胡同乙7号院,1983,116.371862,39.878183,xicheng,93451
1111027375814,白广路东里,1950,116.366204,39.887939,xicheng,95741
1111027380163,文昌胡同,1970,116.370957,39.911753,xicheng,
1111027378321,马连道北街,1985,116.341546,39.893935,xicheng,88870
1111027374491,广安苑三期,2008,116.351037,39.892178,xicheng,
1111027375004,护国寺西巷57号院,1984,116.381023,39.941576,xicheng,117227
1111027375810,白广路27号院,1956,116.36542,39.888689,xicheng,75450
1111027381056,小马厂一巷1号院,2001,116.348059,39.899837,xicheng,87414
1111027380008,铁狮子巷,1980,116.364542,39.948004,xicheng,100440
1111027374833,广源小区西区,2005,116.339942,39.897474,xicheng,
1111027380594,西便门内大街,1982,116.35981,39.900345,xicheng,87375
1111027378189,柳荫街,1989,116.390662,39.945538,xicheng,123633
1111027379446,胜利三巷,1980,116.364927,39.898757,xicheng,84381
1111027378562,南柳巷,1987,116.386882,39.900452,xicheng,94867
1111027380376,五路通北街甲1号院,1958,116.387808,39.966948,xicheng,127054
1111040862970,华裕园小区28号院,1999,116.38717,39.931728,xicheng,
1111027378515,南横西街96号院,1960,116.372521,39.889007,xicheng,88130
1111027381291,宣武门外东里,1970,116.387462,39.905356,xicheng,96550
1111027377921,灵境胡同12号院,1980,116.38677,39.920204,xicheng,126193
1111027382773,中直德外社区,2010,116.385333,39.959364,xicheng,
1111027380306,温家街2号院,1973,116.373848,39.906752,xicheng,160768
1111027377100,警尔胡同,1988,116.38245,39.932874,xicheng,151284
1111027375166,后毛家湾,1920,116.381394,39.936613,xicheng,
1111027382645,庄胜商住楼,1999,116.384655,39.904777,xicheng,109119
1111027379995,陶然亭路,1983,116.381578,39.884883,xicheng,101591
1111041963705,报国寺东夹道,1958,116.366716,39.89852,xicheng,87521
1111027378558,南礼士路三条甲一号院,1983,116.358644,39.917842,xicheng,102388
1111027382710,自新路,1978,116.379678,39.881817,xicheng,99250
1111027378033,朗琴国际,2008,116.34794,39.894161,xicheng,55372
1111027376200,北线阁3号院,1981,116.371831,39.902773,xicheng,96369
1111027376200,北线阁3号院,1981,116.371831,39.902773,xicheng,96369
1111027374797,广义街甲8号院,1970,116.363531,39.897678,xicheng,94604
1111027379899,佟麟阁路,1969,116.375249,39.911358,xicheng,
1111027375820,报国寺1号院,1983,116.367088,39.8961,xicheng,98232
1111027380945,新建里,1978,116.38546,39.886165,xicheng,125499
1111027373867,德胜门内大街265号,1984,116.385566,39.942692,xicheng,136410
1111027378468,南菜园,1982,116.36045,39.879877,xicheng,70652
1111027380001,铁树斜街,1992,116.3978,39.900709,xicheng,91858
1111027382596,枣林西里,1962,116.362069,39.887531,xicheng,
1111027376297,白纸坊中里,1980,116.361666,39.884609,xicheng,
117076788843063,德胜门西大街56号,2005,116.381385,39.954524,xicheng,144156
1111027380941,新街口西里二区2号院,2002,116.375107,39.951996,xicheng,
1111027377570,教子胡同,1980,116.374428,39.89288,xicheng,89766
1111027380430,魏染胡同,1949,116.386899,39.898632,xicheng,91483
1111027382706,中新佳园二区,2008,116.329724,39.885223,xicheng,
1111027378519,南河沿,1978,116.361869,39.926851,xicheng,98395
1111027382076,樱桃二条,1959,116.369769,39.887078,xicheng,62304
1111027382688,真武庙三条3号,1992,116.357799,39.909886,xicheng,
1111027381170,西什库大街37号院,1983,116.384622,39.929417,xicheng,
1111027380734,小拐棒胡同,2013,116.380978,39.932232,xicheng,
1111042906157,危改小区,2010,116.360876,39.952108,xicheng,
1111027379934,太平街17号院,1970,116.392917,39.885469,xicheng,101156
1111027382708,中新佳园一区,2006,116.329662,39.885859,xicheng,
1111027374832,广源小区东区,2007,116.342218,39.897544,xicheng,
1111027380526,未英胡同5号院,2000,116.383735,39.908693,xicheng,
1111027381074,先农坛街甲17号院,1978,116.400204,39.883111,xicheng,98164
1111027373726,东经路,1984,116.399555,39.890905,xicheng,100453
1111047174135,桦皮厂胡同,1981,116.365251,39.94633,xicheng,105607
1111027380375,五路通北街7号院,1978,116.389357,39.96496,xicheng,
1111027380562,西安门北巷,1934,116.381255,39.928963,xicheng,
1111027376825,大耳胡同,1949,116.396372,39.90475,xicheng,107061
1111041189488,四道湾胡同,1949,116.376084,39.926896,xicheng,
1111027380563,西安门大街,1904,116.387687,39.928918,xicheng,
1111060635815,阜成门南河沿,1978,116.36202,39.926646,xicheng,103607
1111027379013,戎辉嘉园,2007,116.331279,39.884547,xicheng,
1111027374287,富力摩根中心,2006,116.394559,39.887475,xicheng,27960
1111027376702,醋章胡同,1992,116.377075,39.894438,xicheng,88566
1111027375817,白广路二条4号院,1952,116.365897,39.893081,xicheng,67440
1111027374514,光彩胡同,1974,116.372757,39.9079,xicheng,
1111027376295,白纸坊西街25号院,1990,116.365124,39.882019,xicheng,
1111027381228,小糖房胡同,1925,116.380559,39.931055,xicheng,
1111027378873,前帽胡同3号院,1991,116.376777,39.943358,xicheng,116729
1111041513707,前门西河沿街,1949,116.396953,39.905355,xicheng,178770
1111027382669,朱苇箔胡同,1970,116.378566,39.927176,xicheng,
1111027376008,保利西山林语,2008,116.220283,40.043636,haidian,60626
1111027380722,橡树湾,2007,116.342241,40.038962,haidian,91633
1111027377061,今典花园,1998,116.367818,39.959568,haidian,89366
1111027381533,逸成东苑,2003,116.35572,40.01918,haidian,81589
1111027382073,永泰东里,1994,116.367137,40.040209,haidian,66126
1111027378224,莱圳家园,2006,116.352882,40.05023,haidian,72280
1111027376013,八里庄北里,1989,116.298736,39.934527,haidian,81715
1111027376795,当代城市家园,2001,116.325617,40.049466,haidian,77434
1111027380525,五月华庭,2001,116.375366,39.958063,haidian,81186
1111046754872,世华龙樾,2013,116.35636,40.052562,haidian,91934
1111027382146,育新花园,1993,116.352299,40.062427,haidian,75067
1111027382106,永泰园,1980,116.354913,40.040671,haidian,61290
1111046342806,上地东里,1993,116.320453,40.039032,haidian,106130
1111027381078,小南庄社区,1980,116.31231,39.971679,haidian,89069
1111027376090,宝盛里,1996,116.37555,40.042102,haidian,61511
1111027382721,智学苑,1999,116.316963,40.056306,haidian,53005
1111027374488,观澳园,2005,116.377572,40.039146,haidian,68599
1111027380129,塔院小区,1984,116.365562,39.982896,haidian,89037
1111027375225,华清嘉园,1994,116.343714,39.996907,haidian,108335
1111027381709,颐慧佳园,2004,116.294131,39.942343,haidian,92546
1111027376911,定慧福里,2009,116.284755,39.93453,haidian,68900
1111027376363,车道沟南里,1984,116.30313,39.950488,haidian,83322
1111027378951,清缘东里,2003,116.365511,40.036171,haidian,70121
1111027376153,百旺茉莉园,2005,116.257014,40.054948,haidian,76740
1111027382191,远洋风景,2002,116.367174,39.952363,haidian,96426
1111027382103,永泰西里,1992,116.362901,40.038898,haidian,67730
1111027379460,上林溪,2010,116.331754,40.051652,haidian,76588
1111027377332,建设部大院,1959,116.338384,39.934691,haidian,105126
1111027376165,冠城大通百旺府,1999,116.264621,40.087404,haidian,64310
1111027381904,怡美家园,2001,116.32616,40.046586,haidian,66173
1111027378913,清上园,2003,116.337135,40.044991,haidian,63762
1111027374292,富力桃园C区,2008,116.386248,40.069552,haidian,61679
1111027382307,知本时代,2002,116.364365,40.069487,haidian,63229
1111027380126,太阳园,2000,116.347797,39.976432,haidian,100506
1111027380476,曙光花园,1997,116.296249,39.949325,haidian,79656
1111027373705,大河庄苑,2003,116.310205,39.987486,haidian,91250
1111027382464,中海枫涟山庄,2003,116.265725,40.057734,haidian,85065
1111027377818,乐府江南,2003,116.268601,39.933567,haidian,86210
1111027374103,恩济里小区,1989,116.291418,39.937341,haidian,82559
1111027373798,东南小区,1980,116.330345,39.984336,haidian,120652
1111027381142,西山华府,2008,116.287746,40.038617,haidian,92195
1111027374646,观林园,2008,116.379323,40.045094,haidian,71051
1111027378318,铭科苑,1996,116.321953,40.058245,haidian,62185
1111027378796,清枫华景园,2004,116.355665,40.016785,haidian,79089
1111046327215,领秀新硅谷1号院,2010,116.315943,40.060937,haidian,79916
1111027373697,定慧西里,1989,116.288489,39.928841,haidian,73824
1111027379682,双榆树东里,1980,116.333303,39.974734,haidian,92932
1111027376447,城华园,1996,116.358543,40.017542,haidian,71029
1111027380127,太月园,1998,116.353539,39.979585,haidian,85091
1111027373995,稻香园,1980,116.308152,39.986695,haidian,96032
1111027378253,牡丹园东里,1985,116.382606,39.983696,haidian,93492
1111027378963,清缘里中区,1998,116.362306,40.035119,haidian,57233
1111027380422,万泉新新家园,1999,116.305298,39.979471,haidian,129157
1111027382707,中鑫嘉园,2001,116.384444,39.986589,haidian,80262
1111027382466,中海馥园,2003,116.327941,39.934006,haidian,101802
1111027377326,今日家园,1999,116.287408,39.906807,haidian,64694
1111027382487,紫金长安,2004,116.289102,39.923448,haidian,116442
1111027376907,定慧东里,1987,116.292014,39.928693,haidian,74059
1111027380996,新康园,1997,116.357513,40.0711,haidian,49052
1111027378146,龙翔路小区,1990,116.380053,39.987291,haidian,82323
1111027377789,兰德华庭,2003,116.258944,39.934331,haidian,75054
1111027375276,华盛家园,2000,116.381452,39.985929,haidian,81600
1111027374116,二里庄小区,1990,116.373188,40.00359,haidian,88370
1111027374615,观景园,2007,116.379998,40.040559,haidian,70993
1111027374608,甘家口小区,1960,116.336244,39.932195,haidian,86827
1111027376278,北影小区,1980,116.36465,39.980549,haidian,86752
1111027377162,金晖嘉园,1998,116.365503,39.951446,haidian,101701
1111027379026,人济山庄,2001,116.321095,39.946957,haidian,100712
1111027378966,强佑清河新城,2007,116.354191,40.035178,haidian,68360
1111027376439,长河湾,2005,116.355289,39.949983,haidian,105706
1111027382572,紫金庄园,1997,116.314388,39.972347,haidian,74085
1111027381832,月季园,1993,116.381497,39.97775,haidian,82789
1111027382321,知春里,1980,116.328627,39.979037,haidian,100319
1111027382609,志强北园,1979,116.372382,39.958962,haidian,79743
1111027382482,中海雅园,1999,116.308194,39.943451,haidian,83709
1111027377356,金尚嘉园,2007,116.37324,39.985025,haidian,101945
1111027381601,远大园五区,2001,116.289427,39.959175,haidian,94787
1111027378170,兰园,1994,116.280601,40.037442,haidian,66280
1111027377070,交大嘉园,2002,116.35154,39.954963,haidian,96584
1111027374750,国兴家园,2000,116.334821,39.939247,haidian,91939
1111027374320,芳清园,2007,116.380817,40.038541,haidian,70490
1111027373961,东王庄,1993,116.347007,40.004589,haidian,79368
1111027376896,定慧北里,1994,116.287719,39.931907,haidian,76239
1111027378541,农科院,1960,116.33633,39.964103,haidian,107612
1111040862984,龙湖唐宁one,2011,116.340959,39.994651,haidian,100356
1111046327190,领秀新硅谷2号院,2008,116.317277,40.062967,haidian,82220
1111027376051,宝盛北里,2002,116.375246,40.044621,haidian,61150
1111041084751,西山壹号院,2011,116.275723,40.046164,haidian,100406
1111027377717,绿波漫板,2003,116.298972,39.943157,haidian,83161
1111027377498,菊园,1994,116.296408,40.039756,haidian,70006
1111027374308,蜂鸟家园,2004,116.303301,39.9707,haidian,133856
1111027382494,皂君东里,1980,116.343001,39.964408,haidian,89171
1111027374195,枫丹丽舍,2000,116.369475,40.069842,haidian,66167
1111027374941,盛今佳园,2006,116.315028,39.900525,haidian,71300
1111027376159,北洼西里,1980,116.308482,39.943704,haidian,80608
1111046364973,夏霖园,2003,116.271742,40.058056,haidian,78082
1111027379678,双榆树北里,1962,116.329472,39.977829,haidian,98866
1111027378844,清景园,2004,116.357932,40.036328,haidian,60177
1111027380141,天兆家园,2002,116.360233,39.959116,haidian,99832
1111027378230,罗庄西里,1992,116.351677,39.980567,haidian,83223
1111027376686,晨月园,2007,116.288983,39.964722,haidian,89621
1111027377530,金隅美和园,2008,116.330146,40.039456,haidian,68641
1111027376611,厂洼小区,1987,116.309984,39.96579,haidian,91657
1111027379217,正源尚峰尚水,2012,116.188935,40.054103,haidian,45114
1111027379193,时代之光名苑,2001,116.361762,39.955025,haidian,79906
1111027375644,安宁佳园,2007,116.334148,40.057145,haidian,73355
1111027376101,碧水云天,2003,116.301832,39.972868,haidian,131857
1111027380153,韦伯豪家园,2000,116.326913,39.959365,haidian,93270
1111027378254,牡丹园西里,1989,116.377299,39.984455,haidian,91529
1111027378259,毛纺厂南小区,1975,116.346988,40.035114,haidian,69644
1111027378786,沁春家园,1999,116.343244,40.063366,haidian,54611
1111027378360,美丽西园,1998,116.282889,39.942772,haidian,73005
1111027378409,满庭芳园,1999,116.338231,39.97411,haidian,85832
1111027378362,美丽园,2000,116.284321,39.942689,haidian,100305
1111027382754,主语家园,2007,116.330331,39.939379,haidian,112878
1111027382696,志新村,1989,116.374459,39.995227,haidian,84400
1111027375647,安宁里南区,1998,116.338433,40.051503,haidian,59651
1111027374928,海淀南路,1980,116.314787,39.981606,haidian,99132
1111027381979,燕清源,2005,116.348101,40.040414,haidian,65150
1111027381749,玉海园三里,1999,116.263038,39.926362,haidian,67013
1111027381130,西三环北路105号院,1958,116.310955,39.937801,haidian,106055
1111027376136,百旺家苑,2003,116.2755,40.036213,haidian,75364
1111027376555,橙色年代,2004,116.302492,39.893778,haidian,63813
1111027382338,展春园,1980,116.349984,39.992769,haidian,84285
1111027375948,北京印象,2003,116.284012,39.931792,haidian,72045
1111027380689,西钓鱼台嘉园,2006,116.305898,39.926084,haidian,95801
1111027380162,万城华府,2004,116.297761,39.9767,haidian,183075
1111027376614,翠微中里,1986,116.304768,39.92028,haidian,89059
1111027379497,水木天成,2005,116.357041,40.033886,haidian,62825
1111027374505,冠城北园,1999,116.383908,39.979902,haidian,84209
1111027376959,黄庄小区,1963,116.325385,39.984968,haidian,119401
1111027376593,翠微路2号院,1955,116.305063,39.91533,haidian,89478
1111027379638,石油大院,1957,116.371187,40.00245,haidian,84652
1111027379648,水云居,2011,116.289093,39.941244,haidian,89772
1111027378266,明光村小区,1976,116.359841,39.962265,haidian,82685
1111027379686,双榆树西里,1980,116.329601,39.974019,haidian,97739
1111027376602,翠微南里,1963,116.304415,39.918055,haidian,90076
1111027379186,上地西里,1997,116.317831,40.039,haidian,80721
1111027376511,诚品建筑,2003,116.283962,39.951413,haidian,89319
1111027376361,车道沟10号院,1963,116.308081,39.951777,haidian,97544
1111027377700,科育小区,1950,116.32811,39.988335,haidian,119735
1111027378339,美林花园,2000,116.313222,39.952186,haidian,88078
1111027382779,紫竹花园,2000,116.310177,39.949819,haidian,69851
1111027381744,玉海园二里,1997,116.260421,39.927665,haidian,66632
1111027381399,学院派,2009,116.359358,39.964464,haidian,71528
1111027381754,玉海园五里,1997,116.264969,39.927867,haidian,70247
1111027374627,观澜国际,2003,116.298094,39.95077,haidian,92054
1111027374327,富润家园,2000,116.360836,40.005728,haidian,81252
1111027374543,光大水墨风景,2005,116.301332,39.970395,haidian,143871
1111027374290,富力桃园A区,2008,116.384155,40.070139,haidian,61022
1111027377002,建材城东二里,1998,116.381531,40.069853,haidian,56712
1111027379162,上地佳园,2003,116.322959,40.040525,haidian,87722
1111027373743,都景苑,2001,116.382614,39.986484,haidian,74246
1111027375721,八宝庄,1988,116.298566,39.928982,haidian,71183
1111027381981,怡清园,2003,116.367293,40.043059,haidian,56609
1111027381126,西山国际城,2010,116.235511,39.93305,haidian,58058
1111027379051,润千秋佳苑,2005,116.276881,40.039824,haidian,78928
1111027378720,普惠南里,1980,116.312809,39.917802,haidian,89149
1111027381080,小南庄怡秀园,1995,116.310157,39.969345,haidian,100100
1111027382659,中铁翰庭,2008,116.355886,40.008477,haidian,94094
1111027379672,三义庙北,1955,116.318374,39.971443,haidian,85545
1111027380265,文慧园,1997,116.369191,39.955198,haidian,84610
1111027381798,永金里小区,1996,116.278849,39.927194,haidian,65472
1111027374006,稻香园西里,1987,116.309252,39.977842,haidian,97338
1111027377963,柳林馆,1976,116.318343,39.916755,haidian,97199
1111027377321,锦秋知春,2000,116.355878,39.980297,haidian,95296
1111027381534,阳春光华家园,1999,116.307748,39.971847,haidian,113268
1111027382016,雅世合金公寓,2010,116.272216,39.933962,haidian,90207
1111027374538,光大花园,2000,116.30693,39.970029,haidian,107008
1111027374556,庚坊国际,2005,116.371593,39.978364,haidian,83978
1111027377878,莲花小区,1999,116.312562,39.902261,haidian,64917
1111027382218,玉渊潭南路9号院,1998,116.333738,39.918088,haidian,132724
1111027376279,博雅西园,2000,116.301205,40.032002,haidian,77954
1111027380066,万科西山庭院,2003,116.283528,40.025064,haidian,101047
1111027377795,力度家园,2003,116.344469,40.037023,haidian,60025
1111027382059,烟树园,2003,116.2853,39.968624,haidian,91264
1111047059959,五矿万科如园,2013,116.268392,40.050203,haidian,88618
1111027377320,建清园,1990,116.354713,40.02098,haidian,76278
1111042959484,西山公馆,2010,116.299708,40.050845,haidian,75566
1111027374611,国家气象局,1960,116.333577,39.952691,haidian,107936
1111027379792,铁道科学研究院,1955,116.350313,39.96236,haidian,103542
1111027377004,建材城西二里,1983,116.361956,40.068051,haidian,59785
1111027377275,蓟门东里,1985,116.359045,39.976308,haidian,82437
1111027381088,新起点嘉园,2001,116.310598,39.967559,haidian,93416
1111027376134,北坞嘉园北里,2009,116.255625,39.985985,haidian,75367
1111027381528,燕北园,1992,116.292974,40.015093,haidian,80484
1111027375903,八家嘉苑,2012,116.350386,40.022432,haidian,72078
1111027379684,双榆树南里二区,1982,116.338177,39.971446,haidian,93804
1111027374291,富力桃园B区,2007,116.38464,40.069024,haidian,61605
1111027376078,北三环中路43号院,1980,116.378612,39.974453,haidian,83855
1111027379054,荣上居,2006,116.345291,39.985497,haidian,90129
1111027377274,蓟门北里,1981,116.356955,39.977595,haidian,85937
1111027374500,高巢,2005,116.364987,40.036611,haidian,70302
1111027377482,金夕园,2003,116.284543,39.967085,haidian,82014
1111027380784,熙湖,2008,116.246707,39.937139,haidian,69507
1111027379067,瑞新里小区,2007,116.286484,39.936102,haidian,87713
1111027382312,知春东里,1985,116.333734,39.980703,haidian,106673
1111027380061,天秀花园安和园,2000,116.279309,40.026934,haidian,77118
1111063798667,京投银泰琨御府,2015,116.29797,39.939975,haidian,89181
1111027374328,芙蓉里,1983,116.307495,39.995727,haidian,87240
1111027379712,舒至嘉园,1990,116.356444,39.951941,haidian,79862
1111027382484,中海紫金苑,2002,116.32123,39.951253,haidian,122117
1111027381212,西山洋房,2007,116.230495,39.936036,haidian,58140
1111027379333,索家坟,1980,116.366996,39.957398,haidian,80575
1111027376089,碧森里,2004,116.256358,39.939747,haidian,77320
1111027376688,春荫园,2004,116.288287,39.968979,haidian,102992
1111027376580,翠微北里,1974,116.305255,39.922671,haidian,90053
1111027378262,毛纺住宅北小区,1990,116.341826,40.044265,haidian,66281
1111027377003,建材城东一里,1996,116.379769,40.068881,haidian,55703
1111027378424,梅园,1988,116.281228,40.034588,haidian,70938
1111027377483,健翔园,1999,116.381129,39.996031,haidian,78038
1111027374389,复兴路61号院,1966,116.299198,39.915465,haidian,111542
1111027375645,安宁里,1990,116.336327,40.052479,haidian,69773
1111027380268,文慧园15号16公寓,2004,116.370086,39.956548,haidian,81550
1111027382732,竹园,1994,116.293444,40.037849,haidian,70678
1111027381581,永定路西里,1994,116.269658,39.911359,haidian,93772
1111027376374,翠叠园,2004,116.291982,39.96905,haidian,106617
1111027374946,海赋国际,2005,116.327078,39.936654,haidian,99076
1111027376239,博雅德园,2004,116.319276,40.063329,haidian,64794
1111027376608,厂洼西街6号院,2005,116.307843,39.961931,haidian,107100
1111027378128,领秀硅谷,2003,116.320895,40.061583,haidian,71661
1111027378269,玫瑰御园,2004,116.299589,39.946924,haidian,100417
1111027374211,阜光里小区,1996,116.328654,39.932955,haidian,82044
1111063808847,保利海德公园,2014,116.3593,39.979996,haidian,115272
1111027380407,万泉河62号院,1989,116.309268,39.979082,haidian,78934
1111027377771,郦城三区,2003,116.278835,39.956753,haidian,95233
1111027373804,丹青府,2006,116.248549,39.93479,haidian,71412
1111027379981,汤泉逸墅,2004,116.27921,39.943762,haidian,98636
1111027376581,翠微东里,1983,116.308305,39.920751,haidian,89002
1111027379533,水清木华园,1999,116.33514,39.995926,haidian,95152
1111027381630,玉阜嘉园,2002,116.259707,39.929521,haidian,66588
1111027375254,褐石,2007,116.328004,40.020679,haidian,118908
1111027377377,静淑苑,1996,116.357301,40.011499,haidian,87496
1111027374522,冠城南园,1998,116.384247,39.978042,haidian,92385
1111027382422,增光佳苑,2004,116.331782,39.934332,haidian,86253
1111027382468,钻河公馆,2007,116.356938,39.950656,haidian,47321
1111027375239,海清园,1999,116.348455,40.03882,haidian,53735
1111027378930,七贤村,1985,116.313423,39.939017,haidian,87426
1111027381597,永达逸家,2004,116.26081,39.934189,haidian,66819
1111027378941,晴雪园,2004,116.29173,39.972148,haidian,118330
1111027377739,郦城二区,2002,116.278664,39.958771,haidian,94552
1111027382677,中湾国际,2007,116.31364,39.987352,haidian,92502
1111027382694,志新北里,1983,116.373007,39.999454,haidian,84494
1111027377915,亮甲店小区,1997,116.284043,39.936141,haidian,68940
1111027382197,榆苑公寓,1996,116.337865,39.978719,haidian,87558
1111027376700,财智公馆,2004,116.30799,39.94881,haidian,70013
1111027375125,红联北村,1980,116.365812,39.960581,haidian,78452
1111027380426,万泉庄小区,1989,116.30967,39.97609,haidian,101550
1111027376068,友谊社区,1958,116.319973,39.97337,haidian,90143
1111027381323,新兴年代,2008,116.275724,39.903782,haidian,87476
1111045775888,海淀九号,2012,116.30495,39.896679,haidian,78416
1111027380456,万寿路甲15号院五区,1998,116.300248,39.924355,haidian,109761
1111027377653,康桥水郡,2003,116.302412,39.968609,haidian,134132
1111027382412,中国房子,2004,116.256257,39.935817,haidian,72593
1111027380235,魏公村8号院,1995,116.322006,39.962768,haidian,91075
1111027382204,颐源居小区,1999,116.311878,39.921625,haidian,96177
1111027373907,东升园,1996,116.343804,39.995202,haidian,94093
1111027378810,清华东路27号院,1990,116.356817,40.007497,haidian,75563
1111027378947,青云北区,1978,116.340103,39.98,haidian,97569
1111027379733,双紫小区,1993,116.307002,39.946153,haidian,80189
1111027375087,宏嘉丽园,2001,116.355271,39.978964,haidian,87976
1111027381913,圆明园花园别墅,1997,116.298009,40.026246,haidian,64422
1111027382057,燕尚园,2006,116.32033,40.054792,haidian,68936
1111027375319,航天社区,1985,116.338009,39.985193,haidian,114935
1111027379695,时雨园,2004,116.290082,39.966788,haidian,101283
1111027382167,悦秀园,1999,116.34066,40.059816,haidian,55769
1111027382613,志强南园,1982,116.375072,39.957136,haidian,82352
1111027377850,绿谷雅园,2004,116.224568,39.933331,haidian,52202
1111027375796,北蜂窝路5号院,1954,116.33414,39.908596,haidian,111049
1111027377552,金雅园,2002,116.282553,39.947605,haidian,77398
1111027378217,罗庄东里,1993,116.353009,39.980769,haidian,92953
1111027381755,玉海园一里,1997,116.26041,39.928053,haidian,71353
1111027377905,六建,1950,116.273525,39.912989,haidian,85543
1111027378785,七彩华园,2003,116.301217,40.028811,haidian,69158
1111027376448,垂虹园,2004,116.293479,39.967021,haidian,96695
1111027374907,会城门小区,1985,116.340116,39.908814,haidian,80355
1111027382794,紫竹院小区,1979,116.314104,39.948603,haidian,80474
1111046888092,前沙涧路7号院,2009,116.153885,40.116451,haidian,37557
1111027380063,天秀花园古月园,2002,116.278239,40.02932,haidian,74589
1111027375738,北辰香麓,2009,116.184432,40.053671,haidian,48515
1111027379373,世纪新景,2003,116.309076,39.945754,haidian,85394
1111027374709,观山园,2004,116.288067,39.971842,haidian,117615
1111027374335,锋尚国际,2002,116.306359,39.9679,haidian,126481
1111027381650,阳光北里,1996,116.342393,40.043347,haidian,59645
1111027381481,学知园,1995,116.361877,40.018262,haidian,70050
1111027377621,科技大学,1950,116.367282,39.998179,haidian,89576
1111027382543,紫金数码,2007,116.344579,39.984924,haidian,66345
1111027380293,吴家村路10号院,1994,116.304497,39.895431,haidian,64417
1111027374865,华澳中心,1997,116.312853,39.951494,haidian,68657
1111027380166,文成杰座,2005,116.353971,40.01264,haidian,78282
1111045132609,永定华庭,2012,116.271554,39.927978,haidian,86614
1111027380995,新科祥园,2002,116.331062,39.988995,haidian,134592
1111027379854,藤花紫院,2010,116.381998,39.988805,haidian,94874
1111027381139,西三环北路86号院,1980,116.317018,39.932102,haidian,89032
1111027377123,金沟河3号院,1987,116.276354,39.924299,haidian,69571
1111027377311,涧桥泊屋,2002,116.30565,39.971082,haidian,125020
1111027378252,牡丹园北里,1997,116.382488,39.985114,haidian,90186
1111027379171,上第MOMA,2007,116.324021,40.050993,haidian,65808
1111027376386,成府路20号院,1979,116.348791,39.997656,haidian,89953
1111027378227,罗庄南里,1986,116.354369,39.978114,haidian,86643
1111027377491,建西苑南里,1998,116.21487,39.9246,haidian,59650
1111063944282,万柳书院,2015,116.299229,39.97983,haidian,225382
1111027380469,万寿路1号院,1977,116.291244,39.924891,haidian,80146
1111027378782,晴波园,2004,116.294687,39.969492,haidian,117935
1111027377375,巨山馨苑,2005,116.233169,39.949073,haidian,49645
1111027380064,天秀花园荷塘月舍,2004,116.286589,40.026412,haidian,85917
1111027373903,都市网景,1999,116.340205,39.975749,haidian,81239
1111027376605,厂洼西街10号院,1998,116.305226,39.961607,haidian,85760
